frame_id,time,image_file,x,y,z,roll,pitch,yaw,rollRate,pitchRate,yawRate,ax,ay,az,throttle,brake,steer,gear
1,0.000000,frame_000001.png,385.684784,-187.945694,0.048701,0.000000,0.000000,90.598579,0.000032,-0.000023,-0.000000,0.000000,0.000000,0.450089,1.000000,0.000000,0.000000,0
2,0.300000,frame_000002.png,385.684784,-187.945694,-0.053206,0.000000,0.000000,90.598579,0.000001,-0.000002,-0.000000,0.000000,0.000000,24.169228,0.000000,1.000000,0.000000,0
3,0.400000,frame_000003.png,385.684784,-187.945694,-0.048914,0.000000,0.000000,90.598579,-0.000001,0.000000,-0.000000,0.000000,0.000000,20.429853,1.000000,0.000000,0.000000,0
4,0.500000,frame_000004.png,385.684784,-187.945694,-0.029650,0.000000,0.000000,90.598579,-0.000001,0.000000,0.000000,0.000000,0.000000,11.307218,1.000000,0.000000,0.000000,0
5,0.600000,frame_000005.png,385.684784,-187.945694,-0.015134,0.000000,0.000000,90.598579,0.000000,0.000000,0.000000,0.000000,0.000000,9.335274,1.000000,0.000000,0.000000,0
6,0.700000,frame_000006.png,385.684784,-187.945694,-0.006692,0.000000,0.000000,90.598579,-0.000001,0.000000,0.000000,0.000000,0.000000,9.202471,0.000000,0.000000,0.000000,0
7,0.800000,frame_000007.png,385.684784,-187.945694,-0.002300,0.000000,0.000000,90.598579,-0.000001,0.000000,0.000000,0.000000,0.000000,9.405079,0.000000,0.000000,0.000000,0
8,0.900000,frame_000008.png,385.684784,-187.945694,-0.000154,0.000000,0.000000,90.598579,0.000000,-0.000000,-0.000000,0.000000,0.000000,9.585460,0.000000,0.000000,0.000000,0
9,1.000000,frame_000009.png,385.684784,-187.945694,0.000854,0.000000,0.000000,90.598579,0.000001,-0.000000,-0.000000,0.000000,0.000000,9.696114,1.000000,0.000000,0.000000,0
10,1.100000,frame_000010.png,385.684784,-187.945694,0.001314,0.000000,0.000000,90.598579,-0.000002,-0.000001,-0.000000,0.000000,0.000000,9.755205,0.000000,0.000000,0.000000,0
11,1.200000,frame_000011.png,385.684753,-187.942963,0.001387,-0.000061,0.003962,90.598396,0.000002,-0.006944,-0.000085,0.265661,-0.002757,9.774006,1.000000,0.000000,0.000000,0
12,1.300000,frame_000012.png,385.683624,-187.833725,0.001137,-0.000061,0.065973,90.598465,0.000002,-0.008241,0.000336,10.540648,0.002532,9.806132,1.000000,0.000000,0.000000,1
13,1.400000,frame_000013.png,385.681366,-187.616837,0.001058,-0.000061,0.092160,90.598572,-0.000000,-0.000553,0.000059,10.856361,0.001761,9.784573,0.000000,0.000000,0.000000,1
14,1.500000,frame_000014.png,385.678619,-187.352676,0.001192,-0.000061,0.076239,90.598572,-0.000001,0.004647,-0.000001,4.829494,-0.005306,9.795624,0.000000,0.000000,0.000000,1
15,1.600000,frame_000015.png,385.675903,-187.080078,0.001380,-0.000061,0.047729,90.598572,-0.000000,0.004175,-0.000000,0.878121,-0.009078,9.805894,1.000000,0.000000,0.000000,1
16,1.700000,frame_000016.png,385.672913,-186.798370,0.001481,-0.000061,0.032184,90.598572,-0.000001,0.002194,-0.000001,0.886973,0.015803,9.809826,0.000000,0.000000,0.000000,1
17,1.800000,frame_000017.png,385.669800,-186.512558,0.001560,-0.000061,0.019582,90.598579,-0.000001,0.001615,-0.000000,0.410987,0.010753,9.809655,1.000000,0.000000,0.000000,1
18,1.900000,frame_000018.png,385.666656,-186.218964,0.001585,-0.000061,0.015627,90.598579,0.000000,0.000618,-0.000000,0.761384,-0.007916,9.810487,0.000000,0.000000,0.000000,1
19,2.000000,frame_000019.png,385.663544,-185.922028,0.001619,-0.000061,0.010102,90.598579,-0.000002,0.000650,-0.000000,0.339211,-0.003515,9.809658,1.000000,0.000000,0.000000,1
20,2.100000,frame_000020.png,385.660431,-185.617737,0.001619,-0.000061,0.010102,90.598579,-0.000000,0.000120,-0.000001,0.726690,-0.007564,9.810410,0.000000,0.000000,0.000000,1
21,2.200000,frame_000021.png,385.657288,-185.310501,0.001638,-0.000061,0.006912,90.598579,0.000002,0.000333,-0.000000,0.299917,-0.003111,9.809623,1.000000,0.000000,0.000000,1
22,2.300000,frame_000022.png,385.653961,-184.989822,0.001597,-0.000061,0.013886,90.598579,-0.000001,-0.002576,-0.000004,1.328764,0.006154,9.810781,1.000000,0.000000,0.000000,1
23,2.400000,frame_000023.png,385.650177,-184.627457,0.001499,-0.000061,0.030620,90.598572,0.000000,-0.001757,-0.000003,4.150512,0.004206,9.808858,0.000000,0.000000,0.000000,1
24,2.500000,frame_000024.png,385.646210,-184.239487,0.001504,-0.000061,0.029780,90.598572,0.000002,0.000866,-0.000001,2.605138,-0.009653,9.806695,1.000000,0.000000,0.000000,1
25,2.600000,frame_000025.png,385.641907,-183.830276,0.001496,-0.000061,0.031071,90.598572,0.000000,-0.001417,-0.000004,2.124293,0.010374,9.809114,1.000000,0.000000,0.000000,1
26,2.700000,frame_000026.png,385.637207,-183.379501,0.001444,-0.000061,0.039943,90.598572,0.000000,-0.000589,-0.000004,4.145754,-0.005729,9.807903,0.000000,0.000000,0.000000,1
27,2.800000,frame_000027.png,385.632141,-182.905151,0.001479,-0.000061,0.033960,90.598572,0.000000,0.001535,-0.000001,2.396100,0.015040,9.806970,0.846108,0.000000,0.000000,1
28,2.900000,frame_000028.png,385.627014,-182.411865,0.001619,-0.000061,0.032054,90.598572,0.000001,-0.001110,-0.000004,1.889194,-0.014669,9.822294,1.000000,0.000000,0.000000,1
29,3.000000,frame_000029.png,385.621552,-181.887421,0.001817,-0.000061,0.031897,90.598572,0.000001,0.001429,-0.000003,3.121910,0.002454,9.815178,0.832473,0.000000,0.000000,1
30,3.100000,frame_000030.png,385.615967,-181.347855,0.001796,-0.000061,0.029008,90.598572,-0.000000,-0.001002,-0.000005,1.519976,-0.005817,9.785512,0.887655,0.000000,0.000000,1
31,3.200000,frame_000031.png,385.609985,-180.774689,0.001705,-0.000061,0.035708,90.598541,0.000001,-0.001432,-0.000011,3.347598,0.005105,9.807603,0.685584,0.000000,0.000000,1
32,3.300000,frame_000032.png,385.603699,-180.167725,0.001661,-0.000061,0.037409,90.598503,-0.000000,0.000474,-0.000001,3.394059,-0.002876,9.809066,0.247434,0.000000,0.000000,1
33,3.400000,frame_000033.png,385.597076,-179.544495,0.001694,-0.000061,0.028694,90.598473,0.000001,0.001582,-0.000004,1.655188,0.017774,9.809525,0.269961,0.000000,0.000000,1
34,3.500000,frame_000034.png,385.590424,-178.915588,0.001739,-0.000061,0.019391,90.598473,-0.000001,0.000837,-0.000002,0.572013,-0.008430,9.810637,0.538598,0.000000,0.000000,1
35,3.600000,frame_000035.png,385.583771,-178.277802,0.001751,-0.000061,0.016652,90.598473,-0.000001,-0.000282,-0.000003,0.876580,-0.006616,9.810948,0.575379,0.000000,0.000000,1
36,3.700000,frame_000036.png,385.577057,-177.626617,0.001749,-0.000061,0.016652,90.598473,0.000001,-0.000093,-0.000003,1.337857,-0.006434,9.810169,0.379010,0.000000,0.000000,1
37,3.800000,frame_000037.png,385.570038,-176.966721,0.001766,-0.000061,0.013517,90.598473,-0.000001,0.000484,-0.000001,0.880080,0.020843,9.809510,0.290449,0.000000,0.000000,1
38,3.900000,frame_000038.png,385.562988,-176.304153,0.001792,-0.000061,0.008995,90.598473,0.000001,0.000365,-0.000001,0.270275,-0.002797,9.809890,0.377047,0.000000,0.000000,1
39,4.000000,frame_000039.png,385.555969,-175.639603,0.001807,-0.000061,0.006434,90.598473,-0.000000,-0.000070,-0.000001,0.197341,-0.002039,9.810222,0.426878,0.000000,0.000000,1
40,4.100000,frame_000040.png,385.548950,-174.973572,0.001823,-0.000061,0.003647,90.598473,-0.000001,0.000655,0.000000,0.149392,0.000957,9.809981,0.000000,0.000000,0.000000,1
41,4.200000,frame_000041.png,385.541992,-174.316162,0.001862,-0.000061,-0.003087,90.598473,-0.000000,0.000580,0.000001,-0.856809,0.001455,9.809515,0.468899,0.000000,0.000000,1
42,4.300000,frame_000042.png,385.535339,-173.667847,0.001884,-0.000061,-0.006748,90.598473,-0.000001,0.000393,0.000002,-0.915194,-0.022944,9.810254,0.000000,0.000000,0.000000,1
43,4.400000,frame_000043.png,385.528717,-173.034195,0.001918,-0.000061,-0.012609,90.598473,-0.000001,0.000718,0.000003,-1.465854,0.012800,9.809415,0.000000,0.000000,0.000000,1
44,4.500000,frame_000044.png,385.522308,-172.420364,0.001948,-0.000061,-0.017731,90.598473,0.000000,0.000004,0.000003,-1.984387,0.000706,9.809475,0.936487,0.000000,0.000000,1
45,4.600000,frame_000045.png,385.516052,-171.820511,0.001944,-0.000061,-0.017000,90.598473,0.000001,-0.000533,0.000002,-1.414266,-0.002748,9.810246,0.000000,0.000000,0.000000,1
46,4.700000,frame_000046.png,385.509888,-171.235580,0.001952,-0.000061,-0.018462,90.598473,0.000000,0.000021,0.000003,-1.490658,0.008048,9.809267,0.000000,0.000000,0.000000,1
47,4.800000,frame_000047.png,385.504028,-170.670929,0.001972,-0.000061,-0.021761,90.598473,-0.000001,0.000102,0.000004,-2.028954,-0.011336,9.809025,0.000000,0.000000,0.000000,1
48,4.900000,frame_000048.png,385.498352,-170.128159,0.001984,-0.000061,-0.023865,90.598473,-0.000000,-0.000502,0.000004,-2.194149,0.005386,9.809235,1.000000,0.000000,0.000000,1
49,5.000000,frame_000049.png,385.492889,-169.600616,0.001968,-0.000061,-0.021085,90.598473,-0.000000,-0.000921,0.000002,-1.537512,-0.006468,9.809962,0.000000,0.000000,0.000000,1
50,5.100000,frame_000050.png,385.487427,-169.087952,0.001965,-0.000061,-0.020573,90.598473,0.000001,-0.000358,0.000002,-1.483415,0.017969,9.809224,0.000000,0.000000,0.000000,1
51,5.200000,frame_000051.png,385.482330,-168.588379,0.001702,-0.000061,-0.017308,90.598473,-0.000001,-0.001018,0.000001,-1.320801,-0.026226,9.785520,0.000000,0.000000,0.000000,1
52,5.300000,frame_000052.png,385.477264,-168.093964,0.001604,-0.000061,-0.012820,90.598473,0.000001,-0.001041,0.000000,-0.518420,0.005403,9.827297,1.000000,0.000000,0.000000,1
53,5.400000,frame_000053.png,385.472168,-167.597855,0.001609,-0.000061,-0.006195,90.598473,0.000000,-0.000567,0.000000,0.160179,-0.001674,9.821736,0.000000,0.000000,0.000000,1
54,5.500000,frame_000054.png,385.467102,-167.108276,0.001665,-0.000061,-0.007964,90.598473,-0.000001,0.000797,0.000002,-0.635053,0.009130,9.809190,0.000000,0.000000,0.000000,1
55,5.600000,frame_000055.png,385.462036,-166.631836,0.001711,-0.000061,-0.010771,90.598473,0.000000,-0.000268,0.000000,-1.313049,0.011207,9.807948,1.000000,0.000000,0.000000,1
56,5.700000,frame_000056.png,385.456940,-166.148804,0.001662,-0.000061,0.000198,90.598473,0.000001,-0.003284,-0.000004,0.631197,-0.011583,9.810243,1.000000,0.000000,0.000000,1
57,5.800000,frame_000057.png,385.451569,-165.632919,0.001884,-0.000061,0.017130,90.598442,-0.000000,0.000833,0.000001,3.273156,0.003354,9.840136,0.000000,0.000000,0.000000,1
58,5.900000,frame_000058.png,385.446075,-165.118164,0.001940,-0.000061,0.006673,90.598442,-0.000001,0.002213,0.000003,-0.050030,0.008045,9.774450,0.804831,0.000000,0.000000,1
59,6.000000,frame_000059.png,385.440704,-164.611221,0.001927,-0.000061,-0.000061,90.598442,0.000000,0.001450,0.000002,-0.793822,-0.001699,9.805586,0.000000,0.000000,0.000000,1
60,6.100000,frame_000060.png,385.435577,-164.109528,0.001881,-0.000061,-0.002261,90.598442,-0.000000,0.001455,-0.000001,-0.533119,-0.019426,9.809853,0.000000,0.000000,0.000000,1
61,6.200000,frame_000061.png,385.430511,-163.610687,0.001616,-0.000061,-0.003176,90.598442,0.000001,0.000450,0.000001,-0.286829,-0.002000,9.789027,0.000000,0.000000,0.000000,1
62,6.300000,frame_000062.png,385.425415,-163.122177,0.001600,-0.000061,-0.008210,90.598442,-0.000000,0.001074,0.000002,-1.028800,0.015742,9.831914,0.000000,0.000000,0.000000,1
63,6.400000,frame_000063.png,385.420471,-162.650696,0.001674,-0.000061,-0.014043,90.598442,0.000001,0.000908,0.000002,-1.699996,0.000241,9.817924,0.000000,0.000000,0.000000,1
64,6.500000,frame_000064.png,385.415771,-162.197693,0.001736,-0.000061,-0.018120,90.598442,0.000000,0.000559,0.000001,-1.858263,-0.005614,9.809491,0.000000,0.000000,0.000000,1
65,6.600000,frame_000065.png,385.411194,-161.763077,0.001773,-0.000061,-0.020347,90.598465,-0.000000,0.000304,0.000000,-1.844791,0.004243,9.808096,0.000000,0.000000,0.000000,1
66,6.700000,frame_000066.png,385.406891,-161.343674,0.001777,-0.000061,-0.018885,90.598465,0.000002,-0.000985,0.000000,-1.532162,-0.009020,9.808851,1.000000,0.000000,0.000000,1
67,6.800000,frame_000067.png,385.402496,-160.917297,0.001697,-0.000061,-0.004084,90.598465,-0.000001,-0.003880,-0.000003,0.668144,0.005525,9.810888,1.000000,0.000000,0.000000,1
68,6.900000,frame_000068.png,385.397644,-160.454544,0.001573,-0.000061,0.017451,90.598465,-0.000002,-0.002528,-0.000003,3.628182,-0.000354,9.809287,0.000000,0.000000,0.000000,1
69,7.000000,frame_000069.png,385.392578,-159.970032,0.001557,-0.000061,0.020470,90.598465,-0.000001,0.000258,-0.000001,2.216170,0.004400,9.806993,0.885583,0.000000,0.000000,1
70,7.100000,frame_000070.png,385.387329,-159.467407,0.001749,-0.000061,0.024479,90.598465,-0.000001,-0.002028,-0.000006,1.814284,-0.001396,9.830750,1.000000,0.000000,0.000000,1
71,7.200000,frame_000071.png,385.381866,-158.940720,0.001863,-0.000061,0.023783,90.598442,-0.000001,0.000610,-0.000006,2.421644,-0.005240,9.797844,0.824472,0.000000,0.000000,1
72,7.300000,frame_000072.png,385.376282,-158.401306,0.001827,-0.000061,0.021713,90.598442,0.000000,0.000299,-0.000001,1.277549,0.001706,9.793657,0.000000,0.000000,0.000000,1
73,7.400000,frame_000073.png,385.370422,-157.855103,0.001820,-0.000061,0.014685,90.598442,-0.000000,0.000942,-0.000001,0.692738,0.017802,9.809217,0.930295,0.000000,0.000000,1
74,7.500000,frame_000074.png,385.364563,-157.303253,0.001797,-0.000061,0.013469,90.598442,-0.000001,-0.001390,-0.000004,0.556053,-0.003273,9.812380,1.000000,0.000000,0.000000,1
75,7.600000,frame_000075.png,385.358521,-156.722549,0.001709,-0.000061,0.025845,90.598434,0.000000,-0.002967,-0.000002,2.858204,-0.012297,9.811584,0.870424,0.000000,0.000000,1
76,7.700000,frame_000076.png,385.351990,-156.100189,0.001637,-0.000061,0.036603,90.598381,-0.000001,-0.000751,-0.000027,4.177785,0.003945,9.807939,0.204517,0.000000,0.000000,1
77,7.800000,frame_000077.png,385.345337,-155.456894,0.001676,-0.000061,0.029390,90.598366,0.000000,0.002062,-0.000003,2.136269,-0.012247,9.807323,0.024132,0.000000,0.000000,1
78,7.900000,frame_000078.png,385.338715,-154.815247,0.001757,-0.000061,0.015095,90.598366,-0.000000,0.001796,0.000000,-0.147381,0.004077,9.809464,0.497851,0.000000,0.000000,1
79,8.000000,frame_000079.png,385.332062,-154.174484,0.001788,-0.000061,0.009644,90.598366,0.000001,-0.000437,-0.000002,-0.104593,0.001120,9.811121,0.759904,0.000000,0.000000,1
80,8.100000,frame_000080.png,385.344940,-153.522552,0.001777,0.075410,0.011543,89.630310,-0.019716,0.000213,-0.356219,0.444165,-2.480178,9.860092,0.525134,0.000000,-0.222222,1
81,8.200000,frame_000081.png,385.376007,-152.859909,0.001773,0.030951,0.012199,88.455170,0.010296,0.000415,-0.080024,0.974866,-2.182319,9.724924,0.000000,0.000000,0.000000,1
82,8.300000,frame_000082.png,385.416656,-152.200958,0.001827,0.077960,0.003026,87.325562,-0.017573,0.002270,-0.361611,-0.290529,-0.747813,9.871682,0.335521,0.000000,-0.222222,1
83,8.400000,frame_000083.png,385.500214,-151.556290,0.001862,0.123036,-0.003115,84.812851,-0.005758,0.000831,-0.488104,-2.001149,-5.386398,9.797205,0.734023,0.000000,-0.222222,1
84,8.500000,frame_000084.png,385.620270,-150.911530,0.001836,0.133791,0.001428,81.972412,-0.003234,-0.000238,-0.514380,0.197006,-3.870570,9.778337,0.607455,0.000000,-0.222222,1
85,8.600000,frame_000085.png,385.776489,-150.260590,0.001808,0.137362,0.006045,79.035774,-0.002446,0.000856,-0.526004,1.127955,-3.441554,9.796688,0.245843,0.000000,-0.222222,1
86,8.700000,frame_000086.png,385.966400,-149.614273,0.001827,0.137574,0.002930,76.071709,-0.002142,0.001984,-0.527641,0.250747,-3.333111,9.798839,0.188869,0.000000,-0.222222,1
87,8.800000,frame_000087.png,386.187408,-148.982544,0.001858,0.137364,-0.002473,73.119164,-0.002230,0.001680,-0.524760,-0.592708,-3.314817,9.801489,0.402766,0.000000,-0.222222,1
88,8.900000,frame_000088.png,386.413574,-148.356171,0.001870,0.044375,-0.004522,71.524605,0.013998,0.000500,-0.110904,0.490835,0.177792,9.746098,0.000000,0.000000,0.000000,1
89,9.000000,frame_000089.png,386.642426,-147.745255,0.001912,0.080842,-0.011564,70.337814,-0.016561,0.001596,-0.361286,-1.113731,-0.201469,9.899004,0.542307,0.000000,-0.222222,1
90,9.100000,frame_000090.png,386.906677,-147.162338,0.001912,0.123625,-0.011598,67.847443,-0.005579,-0.000493,-0.483114,-2.183719,-5.247102,9.803299,0.838681,0.000000,-0.222222,1
91,9.200000,frame_000091.png,387.207520,-146.585648,0.001850,0.133843,-0.000977,65.027275,-0.003009,-0.000886,-0.511381,0.661128,-3.835074,9.779625,0.530768,0.000000,-0.222222,1
92,9.300000,frame_000092.png,387.520508,-145.997238,0.001807,0.040908,0.006270,63.486877,0.013892,-0.000266,-0.104455,2.397198,0.196595,9.737820,0.000000,0.000000,0.000000,1
93,9.400000,frame_000093.png,387.821869,-145.404999,0.001840,0.006297,0.000642,63.239243,0.002320,0.001152,-0.016344,0.721384,2.249761,9.849341,0.000000,0.000000,0.000000,1
94,9.500000,frame_000094.png,388.114685,-144.825928,0.001896,0.000952,-0.008790,63.200127,0.000347,0.001228,-0.002594,-1.410673,0.377550,9.829752,0.000000,0.000000,0.000000,1
95,9.600000,frame_000095.png,388.397491,-144.266220,0.001945,0.000154,-0.017212,63.193958,0.000055,0.000841,-0.000409,-2.160993,0.052388,9.812594,0.000000,0.000000,0.000000,1
96,9.700000,frame_000096.png,388.683533,-143.737656,0.001988,0.066234,-0.024568,62.341427,-0.017814,0.001151,-0.320150,-3.203126,-2.198780,9.852831,1.000000,0.000000,-0.222222,1
97,9.800000,frame_000097.png,388.995422,-143.245941,0.001973,0.109394,-0.021939,60.083874,-0.005403,-0.001399,-0.443065,-2.892914,-5.130756,9.784184,1.000000,0.000000,-0.222222,1
98,9.900000,frame_000098.png,389.340485,-142.761505,0.001867,0.119569,-0.003968,57.489605,-0.003265,-0.003038,-0.474188,0.842649,-3.455464,9.781629,0.866330,0.000000,-0.222222,1
99,10.000000,frame_000099.png,389.728180,-142.269241,0.001766,0.124225,0.013305,54.735683,-0.002570,-0.000796,-0.498946,2.910423,-3.090441,9.798721,0.160650,0.000000,-0.222222,1
100,10.100000,frame_000100.png,390.128082,-141.764877,0.001764,0.032144,0.013572,53.237396,0.013463,0.001020,-0.100921,2.526248,0.494560,9.740551,0.000000,0.000000,0.000000,1
101,10.200000,frame_000101.png,390.498627,-141.247833,0.001833,-0.069855,0.001878,53.902302,0.020648,0.002382,0.321299,0.825462,4.617244,9.795835,0.987755,0.000000,0.222222,1
102,10.300000,frame_000102.png,390.826172,-140.712723,0.001853,-0.121918,-0.001496,56.276329,0.006265,-0.000297,0.471348,0.317336,5.889852,9.833134,1.000000,0.000000,0.222222,1
103,10.400000,frame_000103.png,391.133545,-140.140366,0.001767,-0.136230,0.013251,59.078728,0.003931,-0.002573,0.513838,2.371775,4.112079,9.828150,1.000000,0.000000,0.222222,1
104,10.500000,frame_000104.png,391.459412,-139.524200,0.001652,-0.041534,0.032607,60.610699,-0.014113,-0.001884,0.099668,3.743474,-0.019443,9.884822,0.000000,0.000000,0.000000,1
105,10.600000,frame_000105.png,391.808533,-138.892883,0.001681,-0.006287,0.027881,60.845547,-0.002314,0.002006,0.015678,1.584202,-2.306869,9.765148,0.000000,0.000000,0.000000,1
106,10.700000,frame_000106.png,392.139008,-138.258072,0.001780,-0.077454,0.010956,61.868477,0.019953,0.003328,0.368113,0.003852,2.148895,9.731333,0.587289,0.000000,0.222222,1
107,10.800000,frame_000107.png,392.421814,-137.609573,0.001822,-0.133636,0.003798,64.525879,0.007275,0.000502,0.522363,0.329591,6.080825,9.807179,1.000000,0.000000,0.222222,1
108,10.900000,frame_000108.png,392.702332,-136.937515,0.001759,-0.048401,0.014446,66.135399,-0.013742,-0.001579,0.110398,1.217360,0.824667,9.910152,0.000000,0.000000,0.000000,1
109,11.000000,frame_000109.png,392.978241,-136.250031,0.001778,-0.092773,0.011359,67.432037,0.018249,0.002267,0.397707,1.021664,0.574907,9.716624,0.193441,0.000000,0.222222,1
110,11.100000,frame_000110.png,393.205200,-135.552200,0.001830,-0.142822,0.002452,70.211014,0.006355,0.001988,0.538876,0.369904,6.005204,9.790260,0.696083,0.000000,0.222222,1
111,11.200000,frame_000111.png,393.391876,-134.837982,0.001818,-0.158447,0.004474,73.364693,0.004050,0.000042,0.570132,0.580783,4.792680,9.822090,0.801256,0.000000,0.222222,1
112,11.300000,frame_000112.png,393.541443,-134.094269,0.001774,-0.167816,0.011980,76.652122,0.003172,0.000739,0.588348,1.989006,4.557273,9.801298,0.401413,0.000000,0.222222,1
113,11.400000,frame_000113.png,393.681854,-133.333542,0.001773,-0.067688,0.012001,78.500511,-0.015673,0.001051,0.135841,0.375476,0.590234,9.885257,0.000000,0.000000,0.000000,1
114,11.500000,frame_000114.png,393.829865,-132.580795,0.001836,-0.024719,0.001373,78.840416,-0.003568,0.001841,0.024281,-1.704959,-2.034357,9.769611,0.000000,0.000000,0.000000,1
115,11.600000,frame_000115.png,393.954254,-131.845062,0.001914,-0.091125,-0.011782,79.899429,0.019237,0.002491,0.375571,-1.586225,2.315793,9.729157,0.861406,0.000000,0.222222,1
116,11.700000,frame_000116.png,394.025879,-131.119110,0.001923,-0.144684,-0.013428,82.610779,0.006701,-0.000305,0.533356,-0.500106,6.302892,9.804096,1.000000,0.000000,0.222222,1
117,11.800000,frame_000117.png,394.054535,-130.375534,0.001836,-0.162598,0.001455,85.775749,0.004125,-0.001716,0.575244,1.651631,4.940382,9.822795,0.823391,0.000000,0.222222,1
118,11.900000,frame_000118.png,394.040100,-129.601517,0.001758,-0.172424,0.014692,89.117653,0.003039,0.000656,0.599197,2.999393,4.638711,9.800853,0.161834,0.000000,0.222222,1
119,12.000000,frame_000119.png,394.012543,-128.814148,0.001773,-0.070862,0.012042,91.016258,-0.015958,0.001573,0.141420,0.258657,0.662778,9.885569,0.000000,0.000000,0.000000,1
120,12.100000,frame_000120.png,394.014221,-128.037857,0.001853,0.052568,-0.001468,90.354309,-0.024774,0.002597,-0.353423,-2.905340,-4.663636,9.819450,0.488618,0.000000,-0.222222,1
121,12.200000,frame_000121.png,394.067780,-127.277611,0.001882,0.127320,-0.006407,87.631950,-0.009275,0.000315,-0.546155,-2.805790,-6.833410,9.761137,0.963508,0.000000,-0.222222,1
122,12.300000,frame_000122.png,394.136841,-126.504791,0.001815,0.048142,0.004952,85.906654,0.013332,-0.001723,-0.123624,1.946375,-1.014345,9.703750,0.000000,0.000000,0.000000,1
123,12.400000,frame_000123.png,394.197540,-125.723106,0.001819,0.013817,0.004296,85.599640,0.002492,0.000896,-0.021884,1.806691,2.009620,9.840252,0.000000,0.000000,0.000000,1
124,12.500000,frame_000124.png,394.256989,-124.953979,0.001877,0.006827,-0.005560,85.544365,0.000681,0.001567,-0.004023,-1.073141,0.258820,9.827877,0.000000,0.000000,0.000000,1
125,12.600000,frame_000125.png,394.334900,-124.210533,0.001945,0.081896,-0.017089,84.538116,-0.020110,0.002123,-0.371407,-3.035094,-2.591915,9.862412,0.991659,0.000000,-0.222222,1
126,12.700000,frame_000126.png,394.460510,-123.492233,0.001945,0.138958,-0.017212,81.839638,-0.007124,-0.000607,-0.532112,-3.003405,-6.328479,9.782324,1.000000,0.000000,-0.222222,1
127,12.800000,frame_000127.png,394.632233,-122.768570,0.001845,0.159407,-0.000219,78.678413,-0.004568,-0.002343,-0.575235,0.995480,-4.763947,9.773253,0.923006,0.000000,-0.222222,1
128,12.900000,frame_000128.png,394.855255,-122.022202,0.001744,0.172056,0.017007,75.320251,-0.003431,0.000045,-0.603445,3.241561,-4.455679,9.790332,0.192164,0.000000,-0.222222,1
129,13.000000,frame_000129.png,395.096344,-121.261269,0.001749,0.070727,0.016017,73.404434,0.015961,0.001548,-0.143039,2.820842,-0.434721,9.727571,0.000000,0.000000,0.000000,1
130,13.100000,frame_000130.png,395.327026,-120.504951,0.001826,0.026727,0.003128,73.043198,0.003689,0.002169,-0.026134,0.323955,2.093442,9.849408,0.000000,0.000000,0.000000,1
131,13.200000,frame_000131.png,395.551758,-119.768532,0.001904,0.014753,-0.010259,72.976952,0.001367,0.001767,-0.004849,-1.874825,0.252804,9.831908,0.000000,0.000000,0.000000,1
132,13.300000,frame_000132.png,395.769165,-119.057625,0.001965,0.009040,-0.020600,72.964638,0.000786,0.001113,-0.000917,-2.624932,0.003189,9.813745,0.000000,0.000000,0.000000,1
133,13.400000,frame_000133.png,395.996307,-118.381699,0.002013,0.080368,-0.028810,72.003075,-0.019255,0.001391,-0.358138,-3.691366,-2.530960,9.858492,1.000000,0.000000,-0.222222,1
134,13.500000,frame_000134.png,396.261047,-117.742859,0.001994,0.132517,-0.025565,69.419502,-0.006411,-0.001233,-0.509136,-3.297109,-6.017725,9.782450,1.000000,0.000000,-0.222222,1
135,13.600000,frame_000135.png,396.568359,-117.108894,0.001875,0.149806,-0.005314,66.405266,-0.004217,-0.003255,-0.549395,0.851180,-4.424792,9.776219,1.000000,0.000000,-0.222222,1
136,13.700000,frame_000136.png,396.929321,-116.458817,0.001745,0.161312,0.016836,63.187252,-0.003440,-0.001191,-0.580593,3.605111,-4.139835,9.793516,0.464803,0.000000,-0.222222,1
137,13.800000,frame_000137.png,397.339569,-115.805885,0.001727,0.167009,0.019999,59.847206,-0.002728,0.002628,-0.595606,2.545981,-4.114249,9.791018,0.056206,0.000000,-0.222222,1
138,13.900000,frame_000138.png,397.761200,-115.157448,0.001787,0.066961,0.009631,57.964508,0.015626,0.002278,-0.140007,1.138374,-0.305724,9.734556,0.000000,0.000000,0.000000,1
139,14.000000,frame_000139.png,398.167389,-114.517349,0.001869,0.024524,-0.004276,57.613476,0.003515,0.001980,-0.025071,-0.497918,2.072504,9.850421,0.000000,0.000000,0.000000,1
140,14.100000,frame_000140.png,398.560760,-113.897476,0.001938,0.013327,-0.015928,57.550591,0.001261,0.001368,-0.004539,-2.201139,0.258934,9.831392,0.000000,0.000000,0.000000,1
141,14.200000,frame_000141.png,398.921509,-113.295250,0.002013,-0.063568,-0.028653,58.464668,0.019639,0.002790,0.343453,-2.525068,2.406511,9.760029,0.000000,0.477984,0.222222,1
142,14.300000,frame_000142.png,399.222504,-112.707870,0.002071,-0.114685,-0.038543,60.908012,0.005812,0.001381,0.484586,-3.132116,5.644642,9.814800,0.000000,0.025765,0.222222,1
143,14.400000,frame_000143.png,399.501160,-112.144005,0.002072,-0.036163,-0.038816,62.451366,-0.012696,-0.000557,0.115241,-3.833482,0.609789,9.898908,0.000000,0.000000,0.000000,1
144,14.500000,frame_000144.png,399.775116,-111.609947,0.002065,-0.006134,-0.037716,62.730530,-0.001989,-0.000752,0.018471,-3.785654,-1.910442,9.773945,0.000000,0.000000,0.000000,1
145,14.600000,frame_000145.png,400.036957,-111.101128,0.002058,-0.001740,-0.036501,62.774654,-0.000305,-0.000766,0.002935,-2.969169,-0.295488,9.790171,0.000000,0.000000,0.000000,1
146,14.700000,frame_000146.png,400.271637,-110.610756,0.002059,-0.062012,-0.036651,63.566593,0.016595,0.000002,0.297723,-2.337246,2.003791,9.760983,0.392021,0.000000,0.222222,1
147,14.800000,frame_000147.png,400.484711,-110.135193,0.002031,-0.020874,-0.031801,64.538071,-0.009076,-0.001364,0.071676,-2.159679,1.663733,9.879653,0.000000,0.000000,0.000000,1
148,14.900000,frame_000148.png,400.698517,-109.679688,0.001846,-0.000397,-0.027375,64.759415,-0.001151,-0.001601,0.015653,-2.322518,-1.479577,9.778599,0.000000,0.000000,0.000000,1
149,15.000000,frame_000149.png,400.890930,-109.223442,0.001646,-0.066528,-0.020320,65.707939,0.015449,-0.000680,0.314736,-0.310509,2.311126,9.746842,0.510063,0.000000,0.222222,1
150,15.100000,frame_000150.png,401.073547,-108.764404,0.001625,-0.015686,-0.011598,66.501991,-0.010934,-0.000882,0.024514,-0.254439,1.163308,9.910598,0.000000,0.000000,0.000000,1
151,15.200000,frame_000151.png,401.265778,-108.317818,0.001675,0.007362,-0.011598,66.534683,-0.000741,0.000501,0.000719,-1.281786,-1.965837,9.790953,0.000000,0.000000,0.000000,1
152,15.300000,frame_000152.png,401.434631,-107.878960,0.001730,-0.059235,-0.015190,67.429398,0.015253,0.000544,0.302231,-1.001398,2.286029,9.742787,0.609545,0.000000,0.222222,1
153,15.400000,frame_000153.png,401.594238,-107.440102,0.001716,-0.010254,-0.009494,68.170532,-0.010244,-0.000745,0.020833,-0.476579,0.999186,9.890065,0.000000,0.000000,0.000000,1
154,15.500000,frame_000154.png,401.764252,-107.011871,0.001727,0.009777,-0.009794,68.196938,-0.000394,0.000526,0.001256,-1.093506,-1.916685,9.787662,0.000000,0.000000,0.000000,1
155,15.600000,frame_000155.png,401.911896,-106.591042,0.001754,-0.056030,-0.013524,69.066978,0.014787,0.000542,0.294468,-0.894514,2.240513,9.746695,0.749549,0.000000,0.222222,1
156,15.700000,frame_000156.png,402.026306,-106.156982,0.001700,-0.090118,-0.003907,71.020409,0.001214,-0.002506,0.360906,0.906263,4.411941,9.826486,0.852822,0.000000,0.222222,1
157,15.800000,frame_000157.png,402.129517,-105.689438,0.001606,-0.089783,0.012253,73.168236,-0.000506,-0.001040,0.382510,2.965343,2.311830,9.830502,0.146998,0.000000,0.222222,1
158,15.900000,frame_000158.png,402.216949,-105.208038,0.001624,-0.084045,0.009173,75.354729,-0.001159,0.002412,0.378390,0.957463,1.987684,9.808504,0.000000,0.145550,0.222222,1
159,16.000000,frame_000159.png,402.284637,-104.732330,0.001677,-0.078583,0.000232,77.504532,-0.000624,0.001321,0.374308,-1.053850,1.851467,9.806596,0.476176,0.000000,0.222222,1
160,16.100000,frame_000160.png,402.362762,-104.258636,0.001681,0.008012,-0.000553,78.381409,-0.011732,0.000480,0.026471,-0.944033,-1.731944,9.867396,0.000000,0.000000,0.000000,1
161,16.200000,frame_000161.png,402.436127,-103.792847,0.001712,-0.040588,-0.005649,79.321259,0.015584,0.000909,0.305649,-0.826662,0.095411,9.714873,0.507196,0.000000,0.222222,1
162,16.300000,frame_000162.png,402.501862,-103.328445,0.001702,0.002985,-0.004030,80.071037,-0.009179,-0.000002,0.021322,-0.421709,0.798864,9.875140,0.000000,0.000000,0.000000,1
163,16.400000,frame_000163.png,402.560486,-102.870537,0.001720,-0.047577,-0.007110,80.991791,0.015006,0.000683,0.301938,-0.635330,0.535306,9.743182,0.547939,0.000000,0.222222,1
164,16.500000,frame_000164.png,402.583832,-102.405830,0.001680,-0.085754,-0.000184,83.003975,0.001921,-0.001823,0.371134,0.989714,4.397878,9.813140,0.759118,0.000000,0.222222,1
165,16.600000,frame_000165.png,402.617462,-101.915886,0.001602,-0.001709,0.013093,83.892815,-0.012236,-0.001051,0.028517,1.783936,-1.242206,9.895861,0.000000,0.000000,0.000000,1
166,16.700000,frame_000166.png,402.668274,-101.421013,0.001624,0.019719,0.009303,83.931808,0.000106,0.001620,0.000912,0.107485,-2.382999,9.763432,0.000000,0.000000,0.000000,1
167,16.800000,frame_000167.png,402.699432,-100.936424,0.001686,-0.052795,-0.001284,84.844124,0.016428,0.001704,0.308929,-0.573025,2.281698,9.741531,0.521035,0.000000,0.222222,1
168,16.900000,frame_000168.png,402.691956,-100.450096,0.001670,-0.093872,0.001400,86.925331,0.001951,-0.001172,0.384407,0.763154,4.771370,9.825537,0.726248,0.000000,0.222222,1
169,17.000000,frame_000169.png,402.661774,-99.942802,0.001905,-0.094238,0.010498,89.166855,-0.001621,0.000708,0.335941,2.120563,2.567304,9.863420,0.141844,0.000000,0.222222,1
170,17.100000,frame_000170.png,402.637970,-99.440048,0.001879,-0.007141,0.001591,90.373749,-0.011474,0.000709,0.057412,-1.200165,-1.115967,9.832722,0.000000,0.000000,0.000000,1
171,17.200000,frame_000171.png,402.610962,-98.944191,0.001653,-0.049652,-0.002807,91.386215,0.015214,0.000864,0.319032,-0.851416,-0.046022,9.702590,0.667327,0.000000,0.222222,1
172,17.300000,frame_000172.png,402.546356,-98.448669,0.001723,-0.091522,0.001250,93.519669,0.002705,-0.000987,0.392129,0.965544,4.562535,9.838505,0.554198,0.000000,0.222222,1
173,17.400000,frame_000173.png,402.486633,-97.941345,0.001930,-0.003540,0.003511,94.498795,-0.010093,0.001350,0.051474,0.291203,-1.062958,9.913368,0.000000,0.000000,0.000000,1
174,17.500000,frame_000174.png,402.443207,-97.444077,0.001710,0.017157,-0.002684,94.591110,-0.000709,0.000460,0.002309,-1.745596,-2.300593,9.713517,0.000000,0.000000,0.000000,1
175,17.600000,frame_000175.png,402.383423,-96.957001,0.001628,-0.053680,-0.007144,95.513367,0.016398,0.000865,0.311792,-0.279493,2.115625,9.759120,0.618638,0.000000,0.222222,1
176,17.700000,frame_000176.png,402.314484,-96.472420,0.001626,-0.007843,-0.003941,96.296677,-0.010133,-0.000283,0.023832,-0.268069,1.099809,9.904715,0.000000,0.000000,0.000000,1
177,17.800000,frame_000177.png,402.239716,-95.994507,0.001671,-0.055450,-0.006407,97.246223,0.014893,0.000771,0.310666,-0.470252,0.595791,9.744757,0.478539,0.000000,0.222222,1
178,17.900000,frame_000178.png,402.127808,-95.521713,0.001660,-0.093292,-0.000854,99.328659,0.001782,-0.001448,0.384046,0.875103,4.584522,9.809280,0.724279,0.000000,0.222222,1
179,18.000000,frame_000179.png,402.019257,-95.027176,0.001918,-0.001404,0.008729,100.266518,-0.009405,0.001217,0.108106,1.231094,-1.203169,9.930448,0.000000,0.000000,0.000000,1
180,18.100000,frame_000180.png,401.926666,-94.535698,0.001798,0.015644,0.002076,100.357155,-0.000312,0.000585,0.003037,-1.156022,-2.259019,9.707863,0.000000,0.000000,0.000000,1
181,18.200000,frame_000181.png,401.837738,-94.050552,0.001640,0.012095,-0.003600,100.361084,0.000928,0.001252,0.000195,-0.751552,-0.352728,9.792408,0.000000,0.000000,0.000000,1
182,18.300000,frame_000182.png,401.771332,-93.577377,0.001674,0.073456,-0.010621,99.459717,-0.014297,0.001115,-0.305302,-2.176303,-2.537102,9.869751,1.000000,0.000000,-0.222222,1
183,18.400000,frame_000183.png,401.742889,-93.098358,0.001650,0.105344,-0.002657,97.399422,-0.000831,-0.002365,-0.382789,-0.742736,-4.729137,9.785477,1.000000,0.000000,-0.222222,1
184,18.500000,frame_000184.png,401.703735,-92.587090,0.001866,0.007651,0.015498,96.476868,0.010757,0.000041,-0.096242,4.054716,1.267211,9.749982,0.000000,0.000000,0.000000,1
185,18.600000,frame_000185.png,401.665192,-92.078346,0.001952,0.047783,0.004173,95.644012,-0.013041,0.002622,-0.341721,-0.148788,0.315540,9.872612,1.000000,0.000000,-0.222222,1
186,18.700000,frame_000186.png,401.662750,-91.562675,0.001858,0.095392,0.009835,93.541489,-0.002519,-0.000558,-0.454535,-0.444537,-4.534890,9.801573,1.000000,0.000000,-0.222222,1
187,18.800000,frame_000187.png,401.685181,-91.022224,0.001782,0.098513,0.019002,91.170998,-0.000012,-0.002230,-0.461059,2.188440,-2.782051,9.777856,1.000000,0.000000,-0.222222,1
188,18.900000,frame_000188.png,401.735565,-90.431854,0.001630,0.111421,0.041234,88.589157,-0.004184,-0.004130,-0.466695,4.822107,-2.753857,9.809439,1.000000,0.000000,-0.222222,1
189,19.000000,frame_000189.png,401.788513,-89.781075,0.001549,0.020746,0.052750,87.168015,0.012893,0.000254,-0.089393,6.810097,0.710875,9.731570,0.000000,0.000000,0.000000,1
190,19.100000,frame_000190.png,401.847687,-89.108032,0.001624,0.068649,0.038734,85.987534,-0.018878,0.003640,-0.374447,2.459217,0.002281,9.902705,1.000000,0.000000,-0.222222,1
191,19.200000,frame_000191.png,401.952484,-88.433281,0.001686,0.122885,0.027505,83.347450,-0.007582,0.001229,-0.513878,-0.316127,-5.535335,9.803196,1.000000,0.000000,-0.222222,1
192,19.300000,frame_000192.png,402.102142,-87.733940,0.001642,0.145289,0.034772,80.282669,-0.005340,-0.001095,-0.560180,2.776284,-4.316280,9.777463,1.000000,0.000000,-0.222222,1
193,19.400000,frame_000193.png,402.304474,-86.990753,0.001553,0.163977,0.049833,76.963844,-0.005293,-0.001266,-0.602294,5.162232,-4.251900,9.791785,1.000000,0.000000,-0.222222,1
194,19.500000,frame_000194.png,402.534882,-86.188126,0.001483,0.064297,0.061479,75.081726,0.015591,0.000140,-0.133352,7.354514,-0.315508,9.719247,0.000000,0.000000,0.000000,1
195,19.600000,frame_000195.png,402.762817,-85.355232,0.001578,0.021906,0.045434,74.746277,0.003332,0.003949,-0.024577,3.960819,2.250671,9.844472,0.000000,0.000000,0.000000,1
196,19.700000,frame_000196.png,402.988708,-84.528748,0.001725,0.011540,0.020374,74.682739,0.001107,0.003998,-0.004770,-0.462700,0.287656,9.831464,0.000000,0.000000,0.000000,1
197,19.800000,frame_000197.png,403.229675,-83.730370,0.001857,0.090807,-0.002165,73.597939,-0.021335,0.003844,-0.398180,-2.981913,-2.790483,9.868193,1.000000,0.000000,-0.222222,1
198,19.900000,frame_000198.png,403.518005,-82.967537,0.001895,0.156082,-0.008702,70.660881,-0.008301,0.000549,-0.580835,-3.089008,-7.005408,9.782331,1.000000,0.000000,-0.222222,1
199,20.000000,frame_000199.png,403.829041,-82.197281,0.001818,0.069320,0.004385,68.797264,0.014742,-0.001950,-0.137485,2.126098,-1.337835,9.704838,0.000000,0.000000,0.000000,1
200,20.100000,frame_000200.png,404.137146,-81.415390,0.001818,0.028180,0.004501,68.448288,0.003510,0.000920,-0.025652,2.019162,1.880939,9.841022,0.000000,0.000000,0.000000,1
201,20.200000,frame_000201.png,404.460846,-80.655502,0.001885,0.102404,-0.006987,67.293915,-0.022870,0.002937,-0.420027,-1.964775,-2.630628,9.884049,1.000000,0.000000,-0.333333,1
202,20.300000,frame_000202.png,404.841248,-79.944977,0.001924,0.210615,-0.013490,63.584583,-0.015218,0.002138,-0.793971,-3.650518,-9.044649,9.799798,1.000000,0.000000,-0.333333,1
203,20.400000,frame_000203.png,405.294067,-79.263039,0.001842,0.259904,0.000410,58.674137,-0.008517,0.000373,-0.905487,0.313263,-8.539860,9.732600,1.000000,0.000000,-0.333333,1
204,20.500000,frame_000204.png,405.834991,-78.590965,0.001711,0.292789,0.022608,53.302628,-0.007403,0.000760,-0.970596,3.846058,-7.796822,9.758388,1.000000,0.000000,-0.333333,1
205,20.600000,frame_000205.png,406.447174,-77.896034,0.001582,0.161197,0.044212,49.733997,0.028810,-0.001027,-0.286908,7.253026,-2.758960,9.682991,0.000000,0.000000,0.000000,1
206,20.700000,frame_000206.png,407.090332,-77.190689,0.001649,0.171064,0.033393,47.763470,-0.018891,0.005159,-0.520179,3.860745,-0.078480,9.902063,1.000000,0.000000,-0.333333,1
207,20.800000,frame_000207.png,407.790100,-76.548393,0.001744,0.276415,0.017308,43.449886,-0.016049,0.005330,-0.904479,-1.847859,-9.940607,9.827814,1.000000,0.000000,-0.333333,1
208,20.900000,frame_000208.png,408.568237,-75.966515,0.001711,0.335746,0.022758,37.798813,-0.009658,0.003717,-1.040834,1.331129,-10.477015,9.718530,1.000000,0.000000,-0.333333,1
209,21.000000,frame_000209.png,409.443146,-75.441475,0.001628,0.378273,0.036842,31.578173,-0.007528,0.005042,-1.117956,4.467892,-10.069118,9.730210,1.000000,0.000000,-0.333333,1
210,21.100000,frame_000210.png,410.399414,-74.939438,0.001552,0.221612,0.049130,27.486876,0.044842,0.000596,-0.241230,7.164441,-4.357973,9.649773,0.616065,0.000000,0.333333,1
211,21.200000,frame_000211.png,411.356232,-74.382523,0.001625,-0.035553,0.037225,29.183197,0.041258,0.003783,0.669021,6.760864,8.588115,9.727344,0.346383,0.000000,0.333333,1
212,21.300000,frame_000212.png,412.286896,-73.783745,0.001719,-0.041199,0.021413,32.159428,-0.014104,0.003520,0.250684,0.938062,6.391971,9.979120,0.000000,0.000000,0.000000,1
213,21.400000,frame_000213.png,413.189911,-73.175797,0.001848,-0.115448,-0.000492,34.204845,0.026041,0.004743,0.525747,-2.503560,1.646519,9.757804,1.000000,0.000000,0.333333,1
214,21.500000,frame_000214.png,414.015411,-72.508598,0.001919,-0.261444,-0.012424,38.805061,0.020507,0.004186,0.944059,-0.543939,11.171063,9.709254,1.000000,0.000000,0.333333,1
215,21.600000,frame_000215.png,414.807953,-71.783310,0.001833,-0.180450,0.001550,42.595814,-0.024649,-0.000975,0.309298,0.685350,6.723414,9.951444,0.000000,0.000000,0.000000,1
216,21.700000,frame_000216.png,414.707916,-71.590950,-0.035582,0.408250,0.790492,39.204807,-0.069333,0.001003,-0.026148,-109.297523,10.976267,8.545047,0.959327,0.000000,0.333333,1
217,21.800000,frame_000217.png,414.776642,-71.480057,-0.031472,0.344465,0.710114,39.436405,0.017764,-0.003632,-0.202335,12.331027,-15.880860,12.670048,1.000000,0.000000,0.333333,1
218,21.900000,frame_000218.png,414.771088,-71.467682,-0.026140,0.339726,0.572008,39.094875,0.003671,0.030983,-0.023297,-12.148783,-3.284458,10.035847,0.000000,0.000000,0.000000,1
219,22.000000,frame_000219.png,414.767883,-71.464645,-0.018531,0.256605,0.402230,39.005592,0.017077,0.030326,-0.005332,-0.094226,-0.914595,9.958318,1.000000,0.000000,0.333333,1
220,22.100000,frame_000220.png,414.764984,-71.461258,-0.012228,0.144118,0.277490,38.916798,0.015142,0.016871,-0.018673,-0.007185,-0.075471,9.688808,1.000000,0.000000,0.333333,1
221,22.200000,frame_000221.png,414.762146,-71.455376,-0.009137,0.068543,0.223607,38.768047,0.008819,0.006689,-0.027285,0.008459,0.212139,9.562800,1.000000,0.000000,0.333333,1
222,22.300000,frame_000222.png,414.759705,-71.448959,-0.007704,0.039310,0.196621,38.601856,0.002777,0.003466,-0.029923,0.030824,0.094469,9.694804,1.000000,0.000000,0.333333,1
223,22.400000,frame_000223.png,414.757385,-71.442223,-0.007058,0.030041,0.183029,38.426487,0.001029,0.001651,-0.031343,0.018825,0.051742,9.754462,1.000000,0.000000,0.333333,1
224,22.500000,frame_000224.png,414.755157,-71.435219,-0.006787,0.027044,0.177038,38.244141,0.000231,0.000703,-0.032300,0.037102,0.016224,9.781992,1.000000,0.000000,0.333333,1
225,22.600000,frame_000225.png,414.752930,-71.428009,-0.006734,0.027540,0.175468,38.056767,-0.000234,0.000006,-0.033242,0.029783,0.015301,9.793762,1.000000,0.000000,0.333333,1
226,22.700000,frame_000226.png,414.751038,-71.421661,-0.006996,0.073042,0.165987,37.884018,-0.010775,0.003634,-0.014633,0.030159,0.001973,9.804184,0.000000,0.000000,0.000000,1
227,22.800000,frame_000227.png,414.749634,-71.418663,-0.006197,0.070395,0.145606,37.796665,0.002729,0.006229,0.014487,-0.064787,-0.344222,9.874919,1.000000,0.000000,0.333333,1
228,22.900000,frame_000228.png,414.748779,-71.416603,-0.004764,0.044736,0.117500,37.739536,0.002448,0.005502,-0.005073,0.049363,-0.145651,9.851782,0.000000,0.000000,0.000000,1
229,23.000000,frame_000229.png,414.748169,-71.415924,-0.003274,0.025971,0.085172,37.720924,0.003989,0.005952,-0.001238,-0.021590,-0.083921,9.817566,0.000000,0.000000,0.000000,1
230,23.100000,frame_000230.png,414.747681,-71.415749,-0.001737,0.006652,0.052435,37.715477,0.002737,0.005670,0.000044,0.003075,-0.045557,9.813922,0.000000,0.000000,0.000000,1
231,23.200000,frame_000231.png,414.747375,-71.415817,-0.000440,0.001069,0.028946,37.707462,-0.000917,0.003357,-0.007240,-0.018067,-0.001346,9.801993,1.000000,0.000000,0.333333,1
232,23.300000,frame_000232.png,414.746460,-71.413727,-0.000351,-0.020447,0.035968,37.634895,-0.000228,-0.002876,-0.008694,-0.019673,0.133817,9.699391,1.000000,0.000000,0.333333,1
233,23.400000,frame_000233.png,414.745148,-71.408234,-0.001753,-0.038300,0.079155,37.500820,0.001750,-0.008132,-0.025073,0.071842,0.263348,9.688212,1.000000,0.000000,0.333333,1
234,23.500000,frame_000234.png,414.743713,-71.401863,-0.003384,-0.031128,0.119276,37.339813,-0.002924,-0.005823,-0.030512,0.048224,0.120101,9.802338,1.000000,0.000000,0.333333,1
235,23.600000,frame_000235.png,414.742035,-71.394966,-0.004637,-0.011200,0.144902,37.161480,-0.003261,-0.003583,-0.031679,0.054268,0.073776,9.846463,1.000000,0.000000,0.333333,1
236,23.700000,frame_000236.png,414.740173,-71.387840,-0.005446,0.003546,0.160789,36.977222,-0.002334,-0.002229,-0.032397,0.046399,0.011856,9.843971,1.000000,0.000000,0.333333,1
237,23.800000,frame_000237.png,414.738220,-71.380547,-0.005977,0.013509,0.171089,36.789070,-0.001559,-0.001571,-0.033269,0.038843,0.006196,9.830467,1.000000,0.000000,0.333333,1
238,23.900000,frame_000238.png,414.736389,-71.373482,-0.006350,0.016515,0.179771,36.607796,0.000153,-0.001256,-0.029929,0.035598,-0.038309,9.819741,1.000000,0.000000,0.333333,1
239,24.000000,frame_000239.png,414.734650,-71.367050,-0.006450,0.019000,0.181492,36.441971,-0.000571,0.000048,-0.028788,0.023845,-0.046816,9.832067,1.000000,0.000000,0.333333,1
240,24.100000,frame_000240.png,414.732910,-71.360626,-0.006481,0.020786,0.181649,36.276630,-0.000122,-0.000005,-0.029206,0.038810,-0.009982,9.815352,1.000000,0.000000,0.333333,1
241,24.200000,frame_000241.png,414.731079,-71.354126,-0.006529,0.023071,0.182100,36.109459,-0.000519,-0.000050,-0.029291,0.021088,0.011918,9.808729,1.000000,0.000000,0.333333,1
242,24.300000,frame_000242.png,414.729401,-71.347565,-0.006575,0.025159,0.182550,35.940746,-0.000240,-0.000042,-0.029586,0.050383,-0.011998,9.809943,1.000000,0.000000,0.333333,1
243,24.400000,frame_000243.png,414.727875,-71.341583,-0.006899,0.070929,0.174607,35.779312,-0.010647,0.002452,-0.013601,0.026578,0.030304,9.806855,0.000000,0.000000,0.000000,1
244,24.500000,frame_000244.png,414.726715,-71.337341,-0.006557,0.085458,0.160407,35.666855,0.004087,0.002923,-0.021612,0.002512,-0.208261,9.850289,1.000000,0.000000,0.333333,1
245,24.600000,frame_000245.png,414.725586,-71.333374,-0.005437,0.051296,0.143352,35.590641,0.003863,0.003119,-0.013296,0.044172,-0.110410,9.851740,1.000000,0.000000,0.333333,1
246,24.700000,frame_000246.png,414.724243,-71.328423,-0.005312,0.056578,0.138209,35.462654,-0.005138,0.003391,-0.007220,0.002476,0.128901,9.746248,0.000000,0.000000,0.000000,1
247,24.800000,frame_000247.png,414.723633,-71.326889,-0.004542,0.060017,0.116824,35.420292,0.001882,0.005302,-0.003624,-0.023959,-0.275030,9.861829,0.000000,0.000000,0.000000,1
248,24.900000,frame_000248.png,414.723114,-71.326416,-0.002957,0.040647,0.082256,35.407490,0.004177,0.006367,-0.000340,0.006080,-0.126245,9.866350,0.000000,0.000000,0.000000,1
249,25.000000,frame_000249.png,414.720032,-71.328308,-0.001382,0.025991,0.051356,35.385181,0.001061,0.006359,-0.008416,-0.346952,-0.047684,9.815070,1.000000,0.000000,0.333333,1
250,25.100000,frame_000250.png,414.721985,-71.324844,-0.000858,0.015117,0.049983,35.340691,-0.000653,-0.002968,-0.010931,0.647948,0.138549,9.727552,1.000000,0.000000,-0.222222,1
251,25.200000,frame_000251.png,414.721558,-71.321266,-0.001980,0.034347,0.072052,35.264824,-0.001323,-0.003944,-0.013245,-0.247297,0.181501,9.683085,0.000000,0.000000,0.000000,1
252,25.300000,frame_000252.png,414.721008,-71.319092,-0.002296,0.042166,0.076792,35.211124,-0.002224,0.001236,-0.001242,-0.025564,-0.122936,9.870620,1.000000,0.000000,-0.222222,1
253,25.400000,frame_000253.png,414.720642,-71.317444,-0.002171,0.038022,0.074517,35.167271,0.000931,0.000453,-0.004933,0.019591,-0.079361,9.840802,0.000000,0.000000,0.000000,1
254,25.500000,frame_000254.png,414.718811,-71.317741,-0.001381,0.030393,0.057087,35.134094,0.001621,0.003460,-0.038115,-0.180729,-0.080539,9.863660,1.000000,0.000000,-0.222222,1
255,25.600000,frame_000255.png,414.719574,-71.314835,-0.001470,0.040272,0.056609,35.072025,-0.005015,-0.004318,-0.015410,0.344728,0.126729,9.745772,1.000000,0.000000,-0.222222,1
256,25.700000,frame_000256.png,414.718933,-71.310524,-0.003139,0.073923,0.088191,34.960087,-0.007282,-0.006475,-0.022721,-0.115405,0.193768,9.691337,1.000000,0.000000,-0.222222,1
257,25.800000,frame_000257.png,414.718109,-71.305145,-0.005120,0.111637,0.126495,34.821228,-0.005316,-0.006326,-0.024522,0.034450,0.069448,9.786352,1.000000,0.000000,-0.222222,1
258,25.900000,frame_000258.png,414.717163,-71.299820,-0.006342,0.106720,0.160270,34.689938,0.000675,-0.000978,-0.007553,0.025157,-0.096500,9.852823,0.000000,0.000000,0.000000,1
259,26.000000,frame_000259.png,414.716522,-71.298096,-0.005587,0.093692,0.145210,34.646358,0.002960,0.005991,-0.003847,0.011027,-0.287557,9.967897,0.000000,0.000000,0.000000,1
260,26.100000,frame_000260.png,414.714783,-71.298561,-0.003433,0.063576,0.099721,34.641365,0.007446,0.006978,0.024748,-0.106543,-0.137414,9.916812,1.000000,0.000000,0.222222,1
261,26.200000,frame_000261.png,414.714874,-71.294914,-0.002291,0.028109,0.086620,34.567932,0.005588,-0.001660,-0.019328,0.281962,0.171605,9.727209,1.000000,0.000000,0.222222,1
262,26.300000,frame_000262.png,414.713928,-71.290161,-0.003088,0.041627,0.102617,34.446705,-0.004474,-0.002137,-0.014113,-0.097347,0.210320,9.670824,0.000000,0.000000,0.000000,1
263,26.400000,frame_000263.png,414.713623,-71.288612,-0.003156,0.046860,0.102507,34.406242,-0.001201,0.003320,-0.007858,-0.026147,-0.266691,9.865775,0.000000,0.000000,0.000000,1
264,26.500000,frame_000264.png,414.713196,-71.287811,-0.001945,0.040446,0.071847,34.399105,-0.001830,0.006471,-0.011376,0.051581,-0.064860,9.908425,1.000000,0.000000,0.222222,1
265,26.600000,frame_000265.png,414.712463,-71.284729,-0.001601,0.022703,0.069299,34.332943,0.002482,-0.003987,-0.024159,0.014047,0.136881,9.734986,1.000000,0.000000,0.222222,1
266,26.700000,frame_000266.png,414.711517,-71.279472,-0.002781,0.015117,0.102945,34.204128,0.000577,-0.007161,-0.024281,0.002636,0.166940,9.689870,1.000000,0.000000,0.222222,1
267,26.800000,frame_000267.png,414.710297,-71.272491,-0.004267,0.031812,0.135873,34.027607,-0.003597,-0.005355,-0.032975,0.066562,0.170426,9.795729,1.000000,0.000000,0.222222,1
268,26.900000,frame_000268.png,414.708923,-71.265030,-0.005493,0.050494,0.161233,33.837864,-0.002812,-0.003565,-0.033243,0.047889,0.034966,9.832155,1.000000,0.000000,0.222222,1
269,27.000000,frame_000269.png,414.707458,-71.257561,-0.006282,0.062438,0.177612,33.647926,-0.001683,-0.002225,-0.033129,0.035020,-0.012976,9.842528,1.000000,0.000000,0.222222,1
270,27.100000,frame_000270.png,414.706207,-71.251114,-0.006909,0.101961,0.179798,33.478481,-0.007182,0.001222,-0.017466,0.043804,-0.047791,9.835564,0.000000,0.000000,0.000000,1
271,27.200000,frame_000271.png,414.705292,-71.248291,-0.005949,0.100107,0.153146,33.403130,0.003206,0.007781,-0.014511,-0.018925,-0.358704,9.919338,0.036448,0.000000,0.000000,1
272,27.300000,frame_000272.png,414.704590,-71.247360,-0.004092,0.075520,0.113340,33.379292,0.002804,0.007659,-0.005693,-0.006873,-0.193959,9.874503,0.000000,0.000000,0.000000,1
273,27.400000,frame_000273.png,414.702576,-71.248184,-0.002066,0.046384,0.072386,33.356937,0.004217,0.007612,-0.015533,-0.193059,-0.088193,9.823104,0.012611,0.000000,0.000000,1
274,27.500000,frame_000274.png,414.703430,-71.247345,-0.000530,0.025875,0.044642,33.349682,0.002297,0.004203,-0.006537,0.328278,0.000784,9.775941,0.000000,0.000000,0.000000,1
275,27.600000,frame_000275.png,414.701721,-71.248238,0.000298,0.012029,0.028564,33.330475,0.001236,0.003411,-0.015427,-0.342208,0.002535,9.752048,0.047855,0.000000,0.000000,1
276,27.700000,frame_000276.png,414.702209,-71.247856,0.000922,0.006867,0.017799,33.328773,0.000693,0.001556,-0.012476,0.260894,0.013279,9.799248,0.000000,0.000000,0.000000,1
277,27.800000,frame_000277.png,414.703033,-71.246994,0.001200,0.018198,0.011837,33.341385,-0.003259,0.001733,-0.005709,0.053261,0.065674,9.790304,0.000000,0.000000,0.000000,1
278,27.900000,frame_000278.png,414.703156,-71.246559,0.001308,0.021081,0.002739,33.373131,-0.000244,0.000815,-0.024814,-0.059141,-0.007744,9.784845,0.004742,0.000000,0.000000,1
279,28.000000,frame_000279.png,414.703247,-71.246307,0.001429,0.018337,0.000307,33.384937,0.000548,0.000296,-0.024082,-0.044480,-0.038913,9.812128,0.007735,0.000000,0.000000,1
280,28.100000,frame_000280.png,414.703186,-71.246315,0.001531,0.012030,-0.000307,33.388329,0.001114,0.000008,0.000000,-0.030047,-0.033939,9.806829,0.000000,0.002835,0.000000,1
281,28.200000,frame_000281.png,414.703186,-71.246315,0.001531,0.012030,-0.000307,33.388329,0.000000,0.000000,0.000000,-0.001843,0.008853,9.804622,0.000000,0.000000,0.000000,1
282,28.300000,frame_000282.png,414.703186,-71.246315,0.001531,0.012030,-0.000307,33.388329,0.000000,0.000000,0.000000,-0.000052,-0.002060,9.810000,0.000000,0.001261,0.000000,1
283,28.400000,frame_000283.png,414.703186,-71.246315,0.001531,0.012030,-0.000307,33.388329,0.000000,0.000000,0.000000,-0.000052,-0.002060,9.810000,0.000000,0.003070,0.000000,1
284,28.500000,frame_000284.png,414.703186,-71.246315,0.001531,0.012030,-0.000307,33.388329,0.000000,0.000000,0.000000,-0.000052,-0.002060,9.810000,0.000000,0.003070,0.000000,1
285,28.600000,frame_000285.png,414.703186,-71.246315,0.001531,0.012030,-0.000307,33.388329,0.000000,0.000000,0.000000,-0.000052,-0.002060,9.810000,0.000000,0.003070,0.000000,1
286,28.700000,frame_000286.png,414.703186,-71.246315,0.001531,0.012030,-0.000307,33.388329,0.000000,0.000000,0.000000,-0.000052,-0.002060,9.810000,0.000000,0.000000,0.000000,1
287,28.800000,frame_000287.png,414.703186,-71.246315,0.001531,0.012030,-0.000307,33.388329,0.000000,0.000000,0.000000,-0.000052,-0.002060,9.810000,0.000000,0.003070,0.000000,1
288,28.900000,frame_000288.png,414.703186,-71.246315,0.001531,0.012030,-0.000307,33.388329,0.000000,0.000000,0.000000,-0.000052,-0.002060,9.810000,0.000000,0.003070,0.000000,1
289,29.000000,frame_000289.png,414.703186,-71.246315,0.001531,0.012030,-0.000307,33.388329,0.000000,0.000000,0.000000,-0.000052,-0.002060,9.810000,0.000000,0.003070,0.000000,1
290,29.100000,frame_000290.png,414.703186,-71.246315,0.001531,0.012030,-0.000307,33.388329,0.000000,0.000000,0.000000,-0.000052,-0.002060,9.810000,0.000000,0.003070,0.000000,1
291,29.200000,frame_000291.png,414.703186,-71.246315,0.001531,0.012030,-0.000307,33.388329,0.000000,0.000000,0.000000,-0.000052,-0.002060,9.810000,0.000000,0.003070,0.000000,1
292,29.300000,frame_000292.png,414.703186,-71.246315,0.001531,0.012030,-0.000307,33.388329,0.000000,0.000000,0.000000,-0.000052,-0.002060,9.810000,0.000000,0.003070,0.000000,1
293,29.400000,frame_000293.png,414.703186,-71.246315,0.001531,0.012030,-0.000307,33.388329,0.000000,0.000000,0.000000,-0.000052,-0.002060,9.810000,0.000000,0.003070,0.000000,1
294,29.500000,frame_000294.png,414.703186,-71.246315,0.001531,0.012030,-0.000307,33.388329,0.000000,0.000000,0.000000,-0.000052,-0.002060,9.810000,0.000000,0.003070,0.000000,1
295,29.600000,frame_000295.png,414.703186,-71.246315,0.001531,0.012030,-0.000307,33.388329,0.000000,0.000000,0.000000,-0.000052,-0.002060,9.810000,0.000000,0.000000,0.000000,1
296,29.700000,frame_000296.png,414.703186,-71.246315,0.001531,0.012030,-0.000307,33.388329,0.000000,0.000000,0.000000,-0.000052,-0.002060,9.810000,0.000000,0.000000,0.000000,1
297,29.800000,frame_000297.png,414.703186,-71.246315,0.001531,0.012030,-0.000307,33.388329,0.000000,0.000000,0.000000,-0.000052,-0.002060,9.810000,0.000000,0.000000,0.000000,1
298,29.900000,frame_000298.png,414.703186,-71.246315,0.001531,0.012030,-0.000307,33.388329,0.000000,0.000000,0.000000,-0.000052,-0.002060,9.810000,0.000000,0.003070,0.000000,1
