frame_id,timestamp,image_file,x,y,z,roll,pitch,yaw,vx,vy,vz,ax,ay,az,throttle,brake,steer,gear
1,10.538476,frame_000001.png,222.425232,-371.153198,-0.009028,0.030848,-0.064791,0.257401,7.985475,0.024309,-0.000011,0.798377,-0.128912,9.795415,0.562897,0.000000,-0.003052,1
2,10.638476,frame_000002.png,222.826401,-371.151917,-0.009196,0.029267,-0.020053,0.203664,8.034164,0.020662,-0.000010,0.966562,-0.008457,9.805911,0.498980,0.000000,-0.003301,1
3,10.688476,frame_000003.png,223.229843,-371.150879,-0.009347,0.025441,0.020340,0.201809,8.077968,0.019890,-0.000008,0.903057,-0.127528,9.816506,0.428623,0.000000,-0.001849,1
4,10.738476,frame_000004.png,223.635040,-371.149811,-0.009461,0.021710,0.050728,0.157425,8.109794,0.016961,-0.000009,0.718805,0.034327,9.824213,0.365756,0.000000,-0.002344,1
5,10.788476,frame_000005.png,224.041260,-371.148987,-0.009525,0.017048,0.067878,0.163988,8.126533,0.016986,-0.000009,0.421329,-0.114098,9.829310,0.320488,0.000000,-0.001017,1
6,10.838476,frame_000006.png,224.447754,-371.148041,-0.009538,0.013480,0.071307,0.126667,8.128186,0.014854,-0.000007,0.112323,0.037466,9.830339,0.297094,0.000000,-0.001577,1
7,10.888476,frame_000007.png,224.853806,-371.147247,-0.009507,0.009301,0.062886,0.140399,8.117640,0.015827,-0.000006,-0.149336,-0.051203,9.827741,0.295438,0.000000,-0.000262,1
8,10.938476,frame_000008.png,225.259018,-371.146393,-0.009445,0.007138,0.046138,0.107704,8.098848,0.013274,-0.000003,-0.342052,0.019434,9.822748,0.311210,0.000000,-0.001380,1
9,10.988476,frame_000009.png,225.663086,-371.145721,-0.009367,0.004829,0.025279,0.124506,8.076537,0.014218,0.000001,-0.445842,-0.079849,9.816432,0.338680,0.000000,-0.000151,1
10,11.038476,frame_000010.png,226.066071,-371.144958,-0.009289,0.003653,0.004419,0.094702,8.054814,0.012630,0.000002,-0.439144,0.060102,9.810145,0.370988,0.000000,-0.000890,1
11,11.088476,frame_000011.png,226.468079,-371.144836,-0.009224,0.011086,-0.013121,0.094802,8.037107,-0.000632,0.000003,-0.382708,-0.281268,9.804931,0.402256,0.000000,-0.006093,1
12,11.138476,frame_000012.png,226.869461,-371.144928,-0.009179,0.019796,-0.025087,0.035903,8.025595,-0.005905,0.000004,-0.264335,-0.073224,9.801559,0.427590,0.000000,-0.004746,1
13,11.188476,frame_000013.png,227.270523,-371.145294,-0.009158,0.023495,-0.030640,0.026962,8.021117,-0.007277,0.000002,-0.135297,-0.123958,9.800328,0.443874,0.000000,-0.002971,1
14,11.238476,frame_000014.png,227.671616,-371.145569,-0.009160,0.024548,-0.029964,-0.026367,8.023187,-0.011210,0.000002,0.014855,0.035810,9.800611,0.449989,0.000000,-0.003344,1
15,11.288476,frame_000015.png,228.073044,-371.146118,-0.009181,0.022880,-0.024322,-0.027466,8.030442,-0.012091,0.000002,0.125891,-0.113852,9.802732,0.446688,0.000000,-0.001907,1
16,11.338476,frame_000016.png,228.474976,-371.146637,-0.009214,0.020626,-0.015505,-0.072418,8.040657,-0.015241,0.000001,0.207321,0.016736,9.805242,0.435987,0.000000,-0.002385,1
17,11.388476,frame_000017.png,228.877411,-371.147400,-0.009251,0.016713,-0.005560,-0.064941,8.051714,-0.014700,0.000001,0.189185,-0.122646,9.808184,0.421122,0.000000,-0.000795,1
18,11.438476,frame_000018.png,229.280411,-371.148071,-0.009286,0.013802,0.003729,-0.102417,8.061432,-0.017664,0.000001,0.230531,0.058048,9.811130,0.405155,0.000000,-0.001806,1
19,11.488476,frame_000019.png,229.683762,-371.148865,-0.009312,0.010625,0.010867,-0.090027,8.068553,-0.017299,0.000000,0.141955,-0.061600,9.813107,0.391209,0.000000,-0.000574,1
20,11.538476,frame_000020.png,230.087357,-371.149689,-0.009328,0.007934,0.015081,-0.122070,8.072209,-0.018360,0.000001,0.102583,-0.001146,9.814384,0.381078,0.000000,-0.000880,1
21,11.588476,frame_000021.png,230.490967,-371.150543,-0.009332,0.004457,0.016181,-0.102753,8.072548,-0.016645,0.000001,0.002826,-0.030763,9.814561,0.375971,0.000000,0.000351,1
22,11.638476,frame_000022.png,230.894531,-371.151367,-0.009326,0.003126,0.014569,-0.130951,8.069998,-0.019124,-0.000001,-0.007550,0.019442,9.814063,0.375648,0.000000,-0.001066,1
23,11.688476,frame_000023.png,231.297882,-371.152496,-0.009313,0.005617,0.010983,-0.119324,8.065591,-0.024089,-0.000001,-0.087869,-0.121149,9.812951,0.379450,0.000000,-0.002516,1
24,11.738476,frame_000024.png,231.700958,-371.153656,-0.009296,0.009173,0.006400,-0.159729,8.060352,-0.027051,-0.000001,-0.108848,-0.021877,9.811520,0.385868,0.000000,-0.002393,1
25,11.788476,frame_000025.png,232.103760,-371.155121,-0.009278,0.010164,0.001749,-0.150818,8.055337,-0.026765,-0.000002,-0.109411,-0.112029,9.810122,0.393442,0.000000,-0.001033,1
26,11.838476,frame_000026.png,232.506363,-371.156372,-0.009264,0.010852,-0.002165,-0.188538,8.051267,-0.029622,-0.000001,-0.080634,0.077878,9.808929,0.400659,0.000000,-0.001907,1
27,11.888476,frame_000027.png,232.908829,-371.157806,-0.009254,0.010044,-0.004849,-0.176514,8.048726,-0.029290,-0.000002,-0.060615,-0.071904,9.808076,0.406461,0.000000,-0.000674,1
28,11.938476,frame_000028.png,233.311249,-371.159241,-0.009249,0.008779,-0.006072,-0.209351,8.047791,-0.030538,-0.000002,-0.011003,-0.011539,9.807800,0.410050,0.000000,-0.000983,1
29,11.988476,frame_000029.png,233.713669,-371.160858,-0.009250,0.007177,-0.005860,-0.193085,8.048407,-0.030704,-0.000002,-0.000801,-0.061228,9.807933,0.411316,0.000000,-0.000478,1
30,12.038476,frame_000030.png,234.116135,-371.162292,-0.009255,0.006039,-0.004549,-0.223145,8.050127,-0.031930,-0.000000,0.018988,0.059044,9.808269,0.410352,0.000000,-0.000818,1
31,12.088476,frame_000031.png,234.518723,-371.163910,-0.009262,0.004787,-0.002534,-0.204926,8.052537,-0.031901,-0.000000,0.049781,-0.060640,9.809006,0.407815,0.000000,-0.000311,1
32,12.138476,frame_000032.png,234.921432,-371.165344,-0.009271,0.003703,-0.000246,-0.232605,8.055051,-0.032398,-0.000001,0.039714,0.059528,9.809638,0.404310,0.000000,-0.000440,1
33,12.188476,frame_000033.png,235.324265,-371.166992,-0.009279,0.002163,0.001830,-0.211182,8.057284,-0.031588,-0.000001,0.050608,-0.080186,9.810209,0.400681,0.000000,0.000176,1
34,12.238476,frame_000034.png,235.727219,-371.168427,-0.009285,0.001715,0.003415,-0.237244,8.058856,-0.032995,-0.000000,0.050212,0.089913,9.810779,0.397481,0.000000,-0.000616,1
35,12.288476,frame_000035.png,236.130188,-371.170074,-0.009288,0.000998,0.004337,-0.215363,8.059673,-0.032122,0.000000,0.011081,-0.090133,9.811082,0.395240,0.000000,0.000176,1
36,12.338476,frame_000036.png,236.533218,-371.171722,-0.009289,0.002599,0.004542,-0.244446,8.059678,-0.035854,-0.000001,0.020778,-0.000360,9.810914,0.394105,0.000000,-0.001629,1
37,12.388476,frame_000037.png,236.936142,-371.173553,-0.009287,0.002399,0.004132,-0.224579,8.059076,-0.033379,-0.000001,-0.039018,-0.070567,9.811038,0.394114,0.000000,0.000465,1
38,12.438476,frame_000038.png,237.339081,-371.175201,-0.009284,0.003520,0.003285,-0.253723,8.058017,-0.036886,0.000000,0.010252,0.069441,9.810615,0.395026,0.000000,-0.001508,1
39,12.488476,frame_000039.png,237.741928,-371.177032,-0.009280,0.003024,0.002220,-0.233795,8.056816,-0.034645,-0.000000,-0.039334,-0.070680,9.810334,0.396551,0.000000,0.000430,1
40,12.538476,frame_000040.png,238.144714,-371.178650,-0.009276,0.003043,0.001154,-0.260956,8.055647,-0.036695,0.000000,-0.030121,0.069342,9.809944,0.398302,0.000000,-0.000871,1
41,12.588476,frame_000041.png,238.547455,-371.180511,-0.009273,0.002314,0.000266,-0.239685,8.054742,-0.035465,0.000000,-0.009661,-0.070437,9.809830,0.399972,0.000000,0.000249,1
42,12.638476,frame_000042.png,238.950165,-371.182281,-0.009271,0.003071,-0.000335,-0.267700,8.054159,-0.038327,-0.000001,-0.020104,0.009381,9.809512,0.401270,0.000000,-0.001231,1
43,12.688476,frame_000043.png,239.352905,-371.184204,-0.009270,0.002560,-0.000581,-0.247040,8.053987,-0.036510,-0.000001,0.020116,-0.050352,9.809419,0.402074,0.000000,0.000351,1
44,12.738476,frame_000044.png,239.755646,-371.186005,-0.009270,0.003008,-0.000519,-0.274628,8.054132,-0.038995,-0.000001,-0.010376,0.059436,9.809652,0.402317,0.000000,-0.001066,1
45,12.788476,frame_000045.png,240.158371,-371.188049,-0.009271,0.002415,-0.000184,-0.253693,8.054562,-0.037447,0.000000,0.000456,-0.110412,9.809492,0.402074,0.000000,0.000304,1
46,12.838476,frame_000046.png,240.561127,-371.189880,-0.009273,0.002254,0.000287,-0.279785,8.055112,-0.038878,-0.000001,0.019609,0.089711,9.809913,0.401454,0.000000,-0.000616,1
47,12.888476,frame_000047.png,240.963882,-371.191833,-0.009275,0.000743,0.000806,-0.255920,8.055710,-0.036599,-0.000001,-0.009639,-0.050171,9.809816,0.400645,0.000000,0.000791,1
48,12.938476,frame_000048.png,241.366714,-371.193298,-0.009277,-0.005341,0.001284,-0.267059,8.056222,-0.029175,-0.000001,0.029381,0.181052,9.810121,0.399798,0.000000,0.003414,1
49,12.988476,frame_000049.png,241.769547,-371.194763,-0.009278,-0.011719,0.001646,-0.223358,8.056605,-0.025682,0.000000,0.000165,0.032006,9.810178,0.399109,0.000000,0.002917,1
50,13.038476,frame_000050.png,242.172379,-371.196045,-0.009279,-0.014313,0.001837,-0.228302,8.056783,-0.025313,-0.000001,0.010115,0.052490,9.810110,0.398578,0.000000,0.001558,1
51,13.088476,frame_000051.png,242.575211,-371.197388,-0.009279,-0.015411,0.001885,-0.187164,8.056782,-0.022342,0.000001,-0.009644,-0.007394,9.810431,0.398334,0.000000,0.002186,1
52,13.138476,frame_000052.png,242.978043,-371.198517,-0.009279,-0.013763,0.001776,-0.197601,8.056650,-0.023289,0.000000,0.000028,0.082356,9.810012,0.398358,0.000000,0.000534,1
53,13.188476,frame_000053.png,243.380875,-371.199707,-0.009278,-0.012360,0.001585,-0.162231,8.056392,-0.020379,-0.000001,0.000385,-0.037884,9.810284,0.398549,0.000000,0.001649,1
54,13.238476,frame_000054.png,243.783707,-371.200745,-0.009277,-0.009552,0.001332,-0.177673,8.056132,-0.021781,-0.000000,0.009980,0.081666,9.809941,0.398939,0.000000,0.000033,1
55,13.288476,frame_000055.png,244.186539,-371.201874,-0.009276,-0.007782,0.001086,-0.146729,8.055846,-0.019377,-0.000001,-0.009712,-0.038693,9.810098,0.399306,0.000000,0.001201,1
56,13.338476,frame_000056.png,244.589355,-371.202759,-0.009275,-0.005035,0.000881,-0.166229,8.055657,-0.021321,-0.000000,-0.010110,0.090833,9.809901,0.399730,0.000000,-0.000393,1
57,13.388476,frame_000057.png,244.992081,-371.203857,-0.009275,-0.003632,0.000744,-0.138794,8.055512,-0.019261,-0.000000,-0.019679,-0.079426,9.809899,0.399988,0.000000,0.000871,1
58,13.438476,frame_000058.png,245.394821,-371.204803,-0.009274,-0.002045,0.000690,-0.159912,8.055491,-0.020520,-0.000000,-0.010077,0.070322,9.809907,0.400204,0.000000,-0.000249,1
59,13.488476,frame_000059.png,245.797546,-371.205841,-0.009275,-0.002380,0.000710,-0.131805,8.055522,-0.017703,0.000001,0.010237,-0.049569,9.809865,0.400222,0.000000,0.001231,1
60,13.538476,frame_000060.png,246.200287,-371.206787,-0.009275,-0.002594,0.000785,-0.150421,8.055633,-0.018130,0.000001,-0.009970,0.040418,9.809861,0.400187,0.000000,0.000264,1
61,13.588476,frame_000061.png,246.603104,-371.207733,-0.009275,-0.002869,0.000902,-0.122162,8.055756,-0.017104,0.000000,0.030133,0.010555,9.810091,0.400021,0.000000,0.000695,1
62,13.638476,frame_000062.png,247.005936,-371.208618,-0.009276,-0.001129,0.001025,-0.145142,8.055896,-0.019776,0.000001,0.020150,0.010244,9.809786,0.399847,0.000000,-0.000864,1
63,13.688476,frame_000063.png,247.408768,-371.209625,-0.009276,-0.001282,0.001134,-0.119476,8.056005,-0.016792,0.000002,-0.009702,-0.049801,9.810139,0.399635,0.000000,0.001046,1
64,13.738476,frame_000064.png,247.811600,-371.210449,-0.009277,-0.001068,0.001216,-0.141113,8.056088,-0.018076,0.000001,0.000011,0.080183,9.810044,0.399491,0.000000,-0.000249,1
65,13.788476,frame_000065.png,248.214432,-371.211517,-0.009277,-0.000488,0.001257,-0.117187,8.056122,-0.018121,0.000001,0.010399,-0.089896,9.810047,0.399367,0.000000,0.000000,1
66,13.838476,frame_000066.png,248.617264,-371.212402,-0.009277,-0.000122,0.001264,-0.140472,8.056131,-0.018027,0.000001,-0.009931,0.059996,9.810061,0.399321,0.000000,0.000000,1
67,13.888476,frame_000067.png,249.020096,-371.213470,-0.009277,0.000083,0.001243,-0.116913,8.056094,-0.018099,0.000001,0.000335,-0.060014,9.810031,0.399309,0.000000,0.000000,1
68,13.938476,frame_000068.png,249.422852,-371.211914,-0.009275,-0.044861,0.000949,-0.041168,8.054215,0.055510,0.000001,-0.030592,1.057659,9.809603,0.399365,0.000000,0.032515,1
69,13.988476,frame_000069.png,249.825577,-371.208740,-0.009274,-0.094055,0.000731,0.146924,8.054002,0.077455,-0.000004,0.001741,0.646101,9.809060,0.401903,0.000000,0.021875,1
70,14.038476,frame_000070.png,250.228317,-371.204834,-0.009274,-0.119232,0.000669,0.285331,8.054113,0.091254,-0.000007,-0.008391,0.320459,9.808882,0.401872,0.000000,0.017170,1
71,14.088476,frame_000071.png,250.631042,-371.200409,-0.009275,-0.126373,0.000867,0.455389,8.054341,0.105555,-0.000006,0.001818,0.231629,9.809055,0.401488,0.000000,0.015008,1
72,14.138476,frame_000072.png,251.033783,-371.195343,-0.009276,-0.120148,0.001045,0.556989,8.054900,0.115237,-0.000005,0.012706,0.280461,9.809341,0.400902,0.000000,0.011389,1
73,14.188476,frame_000073.png,251.436523,-371.189880,-0.009277,-0.107330,0.001318,0.686181,8.055068,0.125699,-0.000001,-0.007857,0.178485,9.809592,0.399892,0.000000,0.010072,1
74,14.238476,frame_000074.png,251.839279,-371.183807,-0.009278,-0.090454,0.001468,0.749028,8.055552,0.131777,0.000001,0.013257,0.245337,9.809869,0.399442,0.000000,0.007305,1
75,14.288476,frame_000075.png,252.242004,-371.177521,-0.009279,-0.073700,0.001598,0.844053,8.055435,0.138981,0.000003,0.001747,0.112608,9.809924,0.398592,0.000000,0.006738,1
76,14.338476,frame_000076.png,252.644745,-371.170776,-0.009278,-0.057404,0.001578,0.877938,8.055623,0.142269,0.000004,-0.006971,0.189961,9.810151,0.398614,0.000000,0.004617,1
77,14.388476,frame_000077.png,253.047470,-371.163910,-0.009278,-0.043945,0.001503,0.948978,8.055236,0.147175,0.000005,0.001085,0.057517,9.809959,0.398249,0.000000,0.004577,1
78,14.438476,frame_000078.png,253.450211,-371.156647,-0.009277,-0.032288,0.001339,0.963265,8.055168,0.148645,0.000005,0.012918,0.165338,9.810167,0.398705,0.000000,0.002891,1
79,14.488476,frame_000079.png,253.852966,-371.149353,-0.009276,-0.023834,0.001154,1.018557,8.054689,0.152241,0.000005,0.000020,-0.005918,9.810019,0.398752,0.000000,0.003234,1
80,14.538476,frame_000080.png,254.255524,-371.138733,-0.009273,-0.074676,0.000519,1.146498,8.049215,0.249414,0.000002,-0.052883,1.364116,9.809010,0.399362,0.000000,0.046280,1
81,14.588476,frame_000081.png,254.657944,-371.125732,-0.009271,-0.136383,0.000041,1.409584,8.047813,0.281464,-0.000006,-0.026608,0.974291,9.807694,0.403881,0.000000,0.031543,1
82,14.638476,frame_000082.png,255.060303,-371.111603,-0.009270,-0.168518,-0.000061,1.621712,8.047578,0.302342,-0.000014,-0.006984,0.489230,9.807719,0.404248,0.000000,0.025202,1
83,14.688476,frame_000083.png,255.462677,-371.096710,-0.009272,-0.176971,0.000307,1.857936,8.047558,0.322322,-0.000013,-0.000540,0.320468,9.808066,0.403457,0.000000,0.021607,1
84,14.738476,frame_000084.png,255.865112,-371.080933,-0.009274,-0.168060,0.000744,2.016367,8.048288,0.336804,-0.000010,0.053121,0.397136,9.808633,0.402359,0.000000,0.016771,1
85,14.788476,frame_000085.png,256.267578,-371.064484,-0.009277,-0.150177,0.001325,2.193335,8.048405,0.351353,-0.000004,0.009795,0.275528,9.809129,0.400426,0.000000,0.014493,1
86,14.838476,frame_000086.png,256.670044,-371.047272,-0.009280,-0.127106,0.001721,2.295798,8.049081,0.360739,0.000002,0.033498,0.350696,9.809536,0.399391,0.000000,0.010876,1
87,14.888476,frame_000087.png,257.072510,-371.029633,-0.009281,-0.103943,0.002029,2.423337,8.048795,0.370587,0.000007,-0.013715,0.158518,9.810096,0.397804,0.000000,0.009636,1
88,14.938476,frame_000088.png,257.474976,-371.011383,-0.009281,-0.081635,0.002070,2.483859,8.048961,0.376039,0.000008,0.011622,0.273733,9.810109,0.397616,0.000000,0.006984,1
89,14.988476,frame_000089.png,257.877441,-370.992889,-0.009280,-0.062927,0.001953,2.576717,8.048198,0.382647,0.000009,0.015270,0.120214,9.810286,0.397000,0.000000,0.006516,1
90,15.038476,frame_000090.png,258.279877,-370.973969,-0.009279,-0.046875,0.001660,2.608845,8.047915,0.385446,0.000009,-0.002878,0.158326,9.810041,0.397693,0.000000,0.004464,1
91,15.088476,frame_000091.png,258.681976,-370.951782,-0.009275,-0.094543,0.000806,2.808788,8.038196,0.490677,0.000005,-0.075500,1.331474,9.808870,0.397892,0.000000,0.051569,1
92,15.138476,frame_000092.png,259.083801,-370.926666,-0.009270,-0.154663,-0.000096,3.051208,8.035409,0.523334,-0.000004,-0.047050,1.210659,9.806936,0.403812,0.000000,0.033761,1
93,15.188476,frame_000093.png,259.485565,-370.900513,-0.009269,-0.186371,-0.000335,3.336460,8.033865,0.548957,-0.000013,0.004420,0.452355,9.807300,0.404700,0.000000,0.028714,1
94,15.238476,frame_000094.png,259.887268,-370.873322,-0.009270,-0.192383,-0.000219,3.546458,8.033645,0.567942,-0.000014,-0.005236,0.434024,9.807759,0.404420,0.000000,0.022734,1
95,15.288476,frame_000095.png,260.289001,-370.845337,-0.009273,-0.182098,0.000328,3.771058,8.033176,0.586414,-0.000010,0.021102,0.350481,9.808097,0.402796,0.000000,0.019382,1
96,15.338476,frame_000096.png,260.690704,-370.816345,-0.009276,-0.161285,0.000861,3.914958,8.033704,0.599373,-0.000004,0.027458,0.426680,9.808944,0.401574,0.000000,0.014865,1
97,15.388476,frame_000097.png,261.092407,-370.786865,-0.009278,-0.136749,0.001462,4.077280,8.033352,0.612166,0.000002,0.025156,0.232171,9.809428,0.399412,0.000000,0.012820,1
98,15.438476,frame_000098.png,261.494110,-370.756592,-0.009280,-0.110931,0.001824,4.166411,8.033719,0.620110,0.000008,0.012861,0.328901,9.809839,0.398572,0.000000,0.009536,1
99,15.488476,frame_000099.png,261.895844,-370.726013,-0.009281,-0.087677,0.002056,4.282443,8.032995,0.628623,0.000011,0.020032,0.143902,9.810158,0.397153,0.000000,0.008530,1
100,15.538476,frame_000100.png,262.297516,-370.694824,-0.009280,-0.066833,0.002015,4.333206,8.032874,0.632946,0.000010,-0.002975,0.232326,9.810194,0.397291,0.000000,0.006068,1
101,15.588476,frame_000101.png,262.699188,-370.663513,-0.009279,-0.050262,0.001817,4.417778,8.031812,0.638545,0.000011,-0.003497,0.089139,9.810292,0.396965,0.000000,0.005729,1
102,15.638476,frame_000102.png,263.100769,-370.631714,-0.009278,-0.036591,0.001468,4.442908,8.031365,0.640603,0.000009,-0.006519,0.177303,9.809996,0.397893,0.000000,0.003819,1
103,15.688476,frame_000103.png,263.501923,-370.596619,-0.009273,-0.089508,0.000540,4.643168,8.017489,0.750351,0.000003,-0.071654,1.355531,9.808964,0.398283,0.000000,0.053943,1
104,15.738476,frame_000104.png,263.902679,-370.558441,-0.009269,-0.156158,-0.000396,4.894321,8.013377,0.784898,-0.000007,-0.043727,1.275009,9.806745,0.404740,0.000000,0.035358,1
105,15.788476,frame_000105.png,264.303345,-370.519196,-0.009268,-0.192352,-0.000553,5.190210,8.011000,0.811826,-0.000016,-0.003745,0.434905,9.807116,0.405723,0.000000,0.030094,1
106,15.838476,frame_000106.png,264.703949,-370.478790,-0.009269,-0.200836,-0.000335,5.410719,8.010230,0.831930,-0.000018,0.007268,0.535924,9.807175,0.405232,0.000000,0.023897,1
107,15.888476,frame_000107.png,265.104523,-370.437531,-0.009273,-0.191437,0.000342,5.644846,8.009290,0.851371,-0.000014,0.031534,0.351221,9.808073,0.403332,0.000000,0.020354,1
108,15.938476,frame_000108.png,265.505096,-370.395386,-0.009276,-0.170380,0.000997,5.796997,8.009520,0.865162,-0.000006,0.036532,0.387329,9.808876,0.401763,0.000000,0.015654,1
109,15.988476,frame_000109.png,265.905670,-370.352600,-0.009279,-0.145020,0.001701,5.966486,8.008811,0.878784,0.000002,0.035184,0.262490,9.809549,0.399287,0.000000,0.013537,1
110,16.038476,frame_000110.png,266.306213,-370.309021,-0.009281,-0.118072,0.002111,6.061736,8.008959,0.887309,0.000008,0.006433,0.361483,9.809749,0.398223,0.000000,0.010100,1
111,16.088476,frame_000111.png,266.706665,-370.265076,-0.009282,-0.093567,0.002350,6.182876,8.007909,0.896267,0.000012,-0.014345,0.158438,9.810274,0.396650,0.000000,0.009001,1
112,16.138476,frame_000112.png,267.107117,-370.220490,-0.009281,-0.071533,0.002254,6.237993,8.007564,0.901022,0.000013,0.027551,0.260768,9.810215,0.396780,0.000000,0.006485,1
113,16.188476,frame_000113.png,267.507477,-370.175812,-0.009280,-0.053864,0.001981,6.326057,8.006192,0.906740,0.000012,-0.035010,0.053386,9.810230,0.396499,0.000000,0.006006,1
114,16.238476,frame_000114.png,267.907776,-370.130646,-0.009278,-0.039307,0.001537,6.354177,8.005536,0.909135,0.000010,0.012459,0.206608,9.810211,0.397581,0.000000,0.004128,1
115,16.288476,frame_000115.png,268.307526,-370.082092,-0.009273,-0.092743,0.000499,6.559487,7.987416,1.020639,0.000004,-0.074192,1.383315,9.808721,0.398116,0.000000,0.055314,1
116,16.338476,frame_000116.png,268.706757,-370.030396,-0.009268,-0.160583,-0.000553,6.818087,7.981894,1.056101,-0.000008,-0.057838,1.313439,9.806571,0.404990,0.000000,0.036353,1
117,16.388476,frame_000117.png,269.105835,-369.977600,-0.009267,-0.197479,-0.000765,7.121450,7.978472,1.083676,-0.000018,-0.008839,0.448079,9.806882,0.406113,0.000000,0.030929,1
118,16.438476,frame_000118.png,269.504822,-369.923676,-0.009268,-0.206146,-0.000553,7.348876,7.976966,1.104438,-0.000019,0.021632,0.516463,9.807276,0.405664,0.000000,0.024627,1
119,16.488476,frame_000119.png,269.903748,-369.868774,-0.009272,-0.196564,0.000171,7.589143,7.975347,1.124407,-0.000015,0.030390,0.412962,9.807512,0.403700,0.000000,0.020965,1
120,16.538476,frame_000120.png,270.302612,-369.812958,-0.009276,-0.175018,0.000888,7.746545,7.975146,1.138650,-0.000006,0.028859,0.389375,9.809040,0.402037,0.000000,0.016146,1
121,16.588476,frame_000121.png,270.701447,-369.756500,-0.009279,-0.149078,0.001660,7.920455,7.973998,1.152636,0.000002,0.026207,0.284422,9.809293,0.399411,0.000000,0.013949,1
122,16.638476,frame_000122.png,271.100281,-369.699280,-0.009282,-0.121490,0.002138,8.019421,7.973889,1.161506,0.000008,0.033712,0.329165,9.809949,0.398228,0.000000,0.010446,1
123,16.688476,frame_000123.png,271.499023,-369.641602,-0.009282,-0.096375,0.002418,8.143729,7.972527,1.170731,0.000011,-0.012268,0.210252,9.810120,0.396533,0.000000,0.009304,1
124,16.738476,frame_000124.png,271.897705,-369.583344,-0.009282,-0.073791,0.002343,8.201417,7.972025,1.175619,0.000013,0.021887,0.231811,9.810288,0.396609,0.000000,0.006698,1
125,16.788476,frame_000125.png,272.296295,-369.524872,-0.009280,-0.055725,0.002076,8.291840,7.970388,1.181655,0.000013,-0.026247,0.104369,9.810255,0.396287,0.000000,0.006282,1
126,16.838476,frame_000126.png,272.694214,-369.462738,-0.009275,-0.103607,0.001052,8.458956,7.949736,1.288369,0.000008,-0.060536,1.512936,9.808731,0.397393,0.000000,0.053616,1
127,16.888476,frame_000127.png,273.091583,-369.397797,-0.009271,-0.166046,0.000096,8.767097,7.942747,1.324859,-0.000005,-0.048229,1.158988,9.806591,0.403381,0.000000,0.036744,1
128,16.938476,frame_000128.png,273.488678,-369.331604,-0.009268,-0.197418,-0.000396,9.020664,7.938970,1.348961,-0.000014,-0.008992,0.551598,9.807105,0.404641,0.000000,0.029432,1
129,16.988476,frame_000129.png,273.885712,-369.264496,-0.009269,-0.203674,-0.000273,9.292809,7.935624,1.371509,-0.000015,0.008742,0.398215,9.807381,0.404183,0.000000,0.025055,1
130,17.038476,frame_000130.png,274.282562,-369.196320,-0.009272,-0.191681,0.000041,9.481485,7.934117,1.388295,-0.000010,0.021523,0.465177,9.808010,0.403435,0.000000,0.019570,1
131,17.088476,frame_000131.png,274.679382,-369.127350,-0.009275,-0.170258,0.000663,9.683315,7.932053,1.404513,-0.000004,0.024366,0.349635,9.808622,0.401389,0.000000,0.016701,1
132,17.138476,frame_000132.png,275.076080,-369.057495,-0.009277,-0.143616,0.001168,9.805903,7.931487,1.415381,0.000004,0.030247,0.374585,9.809351,0.400297,0.000000,0.012629,1
133,17.188476,frame_000133.png,275.472717,-368.987183,-0.009280,-0.117157,0.001653,9.949710,7.929851,1.426343,0.000009,0.003563,0.212385,9.809709,0.398331,0.000000,0.011061,1
134,17.238476,frame_000134.png,275.869324,-368.916199,-0.009280,-0.091949,0.001878,10.023184,7.929410,1.432613,0.000011,0.016032,0.276997,9.810163,0.397916,0.000000,0.008061,1
135,17.288476,frame_000135.png,276.265839,-368.844910,-0.009280,-0.070679,0.001953,10.126118,7.927804,1.439644,0.000011,0.001744,0.133749,9.810148,0.396921,0.000000,0.007329,1
136,17.338476,frame_000136.png,276.662292,-368.773163,-0.009279,-0.052582,0.001790,10.166206,7.927192,1.442963,0.000012,0.006078,0.211158,9.810223,0.397440,0.000000,0.005143,1
137,17.388476,frame_000137.png,277.058624,-368.701294,-0.009278,-0.039001,0.001509,10.242310,7.925591,1.447754,0.000010,-0.041832,0.054931,9.810181,0.397438,0.000000,0.005022,1
138,17.438476,frame_000138.png,277.454193,-368.625732,-0.009273,-0.092316,0.000581,10.400730,7.900959,1.555461,0.000005,-0.031395,1.505976,9.808640,0.398502,0.000000,0.054055,1
139,17.488476,frame_000139.png,277.849091,-368.547333,-0.009269,-0.160461,-0.000246,10.706294,7.892846,1.592307,-0.000008,-0.051701,1.207610,9.806718,0.404599,0.000000,0.036960,1
140,17.538476,frame_000140.png,278.243713,-368.467651,-0.009268,-0.196075,-0.000519,10.959771,7.888397,1.616695,-0.000017,-0.009220,0.564993,9.806889,0.405526,0.000000,0.029677,1
141,17.588476,frame_000141.png,278.638184,-368.387054,-0.009270,-0.205017,-0.000184,11.232899,7.884542,1.639481,-0.000018,0.009297,0.390079,9.807401,0.404746,0.000000,0.025275,1
142,17.638476,frame_000142.png,279.032562,-368.305450,-0.009273,-0.194489,0.000328,11.422923,7.882639,1.656522,-0.000013,0.032247,0.445077,9.808073,0.403533,0.000000,0.019757,1
143,17.688476,frame_000143.png,279.426819,-368.223114,-0.009277,-0.173645,0.001072,11.626240,7.880148,1.673033,-0.000006,0.031257,0.329619,9.808664,0.401155,0.000000,0.016898,1
144,17.738476,frame_000144.png,279.820984,-368.139832,-0.009279,-0.147064,0.001626,11.750377,7.879231,1.684193,0.000003,0.026676,0.397609,9.809576,0.399781,0.000000,0.012816,1
145,17.788476,frame_000145.png,280.215057,-368.056091,-0.009281,-0.120331,0.002090,11.895644,7.877188,1.695296,0.000008,0.010167,0.212706,9.809728,0.397702,0.000000,0.011210,1
146,17.838476,frame_000146.png,280.609009,-367.971680,-0.009282,-0.094635,0.002240,11.970485,7.876415,1.701760,0.000012,0.007471,0.290703,9.810266,0.397278,0.000000,0.008217,1
147,17.888476,frame_000147.png,281.002899,-367.886993,-0.009281,-0.072937,0.002192,12.074837,7.874397,1.708965,0.000014,0.001737,0.114460,9.810229,0.396391,0.000000,0.007505,1
148,17.938476,frame_000148.png,281.396667,-367.801758,-0.009280,-0.054382,0.001892,12.116195,7.873523,1.712314,0.000012,-0.000286,0.244683,9.810200,0.397084,0.000000,0.005256,1
149,17.988476,frame_000149.png,281.790375,-367.716370,-0.009278,-0.040405,0.001489,12.193446,7.871594,1.717167,0.000010,-0.018508,0.062127,9.810127,0.397277,0.000000,0.005148,1
150,18.038476,frame_000150.png,282.183105,-367.627380,-0.009273,-0.093994,0.000444,12.354183,7.842844,1.825117,0.000005,-0.070660,1.515958,9.808565,0.398538,0.000000,0.054755,1
151,18.088476,frame_000151.png,282.575104,-367.535492,-0.009268,-0.162781,-0.000458,12.663477,7.833258,1.862226,-0.000008,-0.030916,1.213467,9.806639,0.404908,0.000000,0.037481,1
152,18.138476,frame_000152.png,282.966736,-367.442322,-0.009267,-0.198792,-0.000765,12.920807,7.827871,1.886854,-0.000017,-0.022548,0.562420,9.806871,0.405946,0.000000,0.030122,1
153,18.188476,frame_000153.png,283.358185,-367.348267,-0.009269,-0.207886,-0.000396,13.197582,7.823189,1.909879,-0.000018,-0.003216,0.416361,9.807013,0.405170,0.000000,0.025670,1
154,18.238476,frame_000154.png,283.749451,-367.253113,-0.009272,-0.197266,0.000164,13.390905,7.820707,1.927179,-0.000014,0.041244,0.465976,9.808058,0.403888,0.000000,0.020094,1
155,18.288476,frame_000155.png,284.140625,-367.157166,-0.009276,-0.176239,0.000984,13.597151,7.817665,1.943906,-0.000007,0.036519,0.350607,9.808556,0.401383,0.000000,0.017194,1
156,18.338476,frame_000156.png,284.531647,-367.060333,-0.009279,-0.149323,0.001612,13.723787,7.816409,1.955243,0.000003,0.025023,0.379809,9.809546,0.399877,0.000000,0.013045,1
157,18.388477,frame_000157.png,284.922577,-366.963043,-0.009282,-0.122223,0.002145,13.871078,7.814012,1.966421,0.000008,0.016792,0.212578,9.809843,0.397659,0.000000,0.011386,1
158,18.438477,frame_000158.png,285.313416,-366.865021,-0.009282,-0.096222,0.002329,13.947678,7.813011,1.973071,0.000012,0.021773,0.309977,9.810164,0.397143,0.000000,0.008396,1
159,18.488477,frame_000159.png,285.704132,-366.766754,-0.009282,-0.074280,0.002302,14.053607,7.810708,1.980369,0.000013,-0.014126,0.119438,9.810282,0.396187,0.000000,0.007665,1
160,18.538477,frame_000160.png,286.094727,-366.667969,-0.009280,-0.055420,0.001994,14.096206,7.809700,1.983702,0.000014,0.000557,0.215644,9.810315,0.396877,0.000000,0.005344,1
161,18.588477,frame_000161.png,286.484344,-366.565918,-0.009275,-0.103394,0.001011,14.309818,7.777345,2.089753,0.000007,-0.063630,1.385924,9.808722,0.397090,0.000000,0.054723,1
162,18.638477,frame_000162.png,286.872986,-366.460815,-0.009270,-0.165375,-0.000061,14.570123,7.767292,2.123382,-0.000006,-0.060881,1.304670,9.806458,0.403764,0.000000,0.035989,1
163,18.688477,frame_000163.png,287.261353,-366.354675,-0.009268,-0.197968,-0.000423,14.872533,7.760096,2.149652,-0.000013,-0.008252,0.470618,9.806969,0.404896,0.000000,0.030543,1
164,18.738477,frame_000164.png,287.649414,-366.247467,-0.009269,-0.203827,-0.000396,15.097745,7.755714,2.169441,-0.000016,0.005729,0.478702,9.807506,0.404806,0.000000,0.024237,1
165,18.788477,frame_000165.png,288.037323,-366.139404,-0.009272,-0.192719,0.000109,15.335312,7.751252,2.188458,-0.000011,0.029429,0.367110,9.807890,0.403192,0.000000,0.020605,1
166,18.838477,frame_000166.png,288.425018,-366.030396,-0.009275,-0.170624,0.000649,15.490067,7.749006,2.202139,-0.000005,0.014867,0.419445,9.808795,0.401979,0.000000,0.015860,1
167,18.888477,frame_000167.png,288.812622,-365.920746,-0.009278,-0.144714,0.001298,15.661411,7.745936,2.215359,0.000002,0.031895,0.285922,9.809187,0.399688,0.000000,0.013647,1
168,18.938477,frame_000168.png,289.200073,-365.810333,-0.009280,-0.117462,0.001721,15.757884,7.744662,2.223753,0.000007,0.014397,0.327848,9.809975,0.398762,0.000000,0.010172,1
169,18.988477,frame_000169.png,289.587402,-365.699554,-0.009281,-0.092834,0.002015,15.879786,7.742180,2.232362,0.000011,0.012533,0.168379,9.809984,0.397175,0.000000,0.009033,1
170,19.038477,frame_000170.png,289.974609,-365.588196,-0.009281,-0.070801,0.002029,15.935297,7.741159,2.236945,0.000013,0.008545,0.259373,9.810144,0.397234,0.000000,0.006484,1
171,19.088477,frame_000171.png,290.361755,-365.476685,-0.009279,-0.053375,0.001871,16.023849,7.738896,2.242582,0.000013,-0.011952,0.075089,9.810362,0.396802,0.000000,0.006106,1
172,19.138477,frame_000172.png,290.748718,-365.364746,-0.009278,-0.039001,0.001537,16.052336,7.737983,2.244766,0.000009,-0.015920,0.167420,9.810011,0.397718,0.000000,0.004126,1
173,19.188477,frame_000173.png,291.134613,-365.249573,-0.009273,-0.092285,0.000587,16.257275,7.701600,2.351190,0.000004,-0.052771,1.406198,9.808939,0.398090,0.000000,0.055064,1
174,19.238477,frame_000174.png,291.519440,-365.131287,-0.009269,-0.159760,-0.000396,16.514679,7.690330,2.384965,-0.000007,-0.050258,1.335585,9.806406,0.404786,0.000000,0.036144,1
175,19.288477,frame_000175.png,291.903931,-365.012054,-0.009267,-0.196381,-0.000581,16.816526,7.682398,2.411349,-0.000016,-0.020389,0.415832,9.807304,0.405819,0.000000,0.030723,1
176,19.338477,frame_000176.png,292.288116,-364.891724,-0.009269,-0.204926,-0.000369,17.042406,7.677447,2.431381,-0.000018,0.020023,0.510050,9.807095,0.405353,0.000000,0.024447,1
177,19.388477,frame_000177.png,292.672119,-364.770569,-0.009272,-0.195282,0.000307,17.281162,7.672495,2.450601,-0.000015,0.018723,0.362750,9.807951,0.403429,0.000000,0.020794,1
178,19.438477,frame_000178.png,293.055908,-364.648438,-0.009276,-0.173828,0.000970,17.437244,7.669859,2.464508,-0.000006,0.043707,0.435352,9.808724,0.401846,0.000000,0.016028,1
179,19.488477,frame_000179.png,293.439575,-364.525665,-0.009279,-0.148010,0.001680,17.610044,7.666346,2.477978,0.000002,0.018734,0.281778,9.809443,0.399319,0.000000,0.013841,1
180,19.538477,frame_000180.png,293.823029,-364.402069,-0.009281,-0.120544,0.002111,17.708010,7.664729,2.486572,0.000008,0.021485,0.349811,9.809834,0.398229,0.000000,0.010342,1
181,19.588477,frame_000181.png,294.206390,-364.278168,-0.009282,-0.095520,0.002350,17.831284,7.661863,2.495241,0.000011,0.014714,0.158816,9.810222,0.396616,0.000000,0.009170,1
182,19.638477,frame_000182.png,294.589569,-364.153656,-0.009282,-0.072998,0.002261,17.888010,7.660554,2.499902,0.000013,-0.008171,0.246436,9.810199,0.396737,0.000000,0.006606,1
183,19.688477,frame_000183.png,294.972656,-364.028961,-0.009280,-0.055054,0.001994,17.977602,7.657957,2.505505,0.000013,-0.000416,0.104292,9.810255,0.396436,0.000000,0.006200,1
184,19.738477,frame_000184.png,295.355621,-363.903870,-0.009278,-0.040253,0.001537,18.007008,7.656821,2.507735,0.000012,-0.007337,0.177603,9.810214,0.397530,0.000000,0.004224,1
185,19.788477,frame_000185.png,295.737305,-363.775574,-0.009273,-0.093719,0.000492,18.213913,7.616305,2.613816,0.000005,-0.074780,1.388196,9.808872,0.398071,0.000000,0.055679,1
186,19.838477,frame_000186.png,296.117859,-363.644257,-0.009268,-0.161774,-0.000553,18.474569,7.603633,2.647666,-0.000007,-0.062443,1.324270,9.806361,0.405028,0.000000,0.036604,1
187,19.888477,frame_000187.png,296.497986,-363.511841,-0.009267,-0.198822,-0.000792,18.779917,7.594630,2.674179,-0.000018,-0.000499,0.498899,9.806696,0.406167,0.000000,0.031152,1
188,19.938477,frame_000188.png,296.877838,-363.378357,-0.009268,-0.207458,-0.000581,19.009064,7.588935,2.694304,-0.000019,0.013791,0.474953,9.807368,0.405730,0.000000,0.024784,1
189,19.988477,frame_000189.png,297.257446,-363.244049,-0.009272,-0.197784,0.000157,19.250811,7.583271,2.713681,-0.000014,0.033302,0.371783,9.807768,0.403749,0.000000,0.021113,1
190,20.038477,frame_000190.png,297.636780,-363.108734,-0.009276,-0.176178,0.000874,19.409594,7.580144,2.727773,-0.000006,0.029329,0.443985,9.808727,0.402071,0.000000,0.016300,1
191,20.088477,frame_000191.png,298.015991,-362.972809,-0.009279,-0.150085,0.001660,19.584669,7.576179,2.741300,0.000003,0.030907,0.290766,9.809240,0.399423,0.000000,0.014047,1
192,20.138477,frame_000192.png,298.394989,-362.836121,-0.009281,-0.122345,0.002138,19.684599,7.574259,2.750055,0.000009,0.013310,0.324317,9.810078,0.398228,0.000000,0.010538,1
193,20.188477,frame_000193.png,298.773834,-362.699066,-0.009282,-0.097076,0.002425,19.809704,7.571044,2.758867,0.000012,0.017006,0.180709,9.810089,0.396515,0.000000,0.009373,1
194,20.238477,frame_000194.png,299.152527,-362.561371,-0.009282,-0.074432,0.002356,19.868202,7.569509,2.763716,0.000013,0.006731,0.265648,9.810274,0.396585,0.000000,0.006808,1
195,20.288477,frame_000195.png,299.531067,-362.423462,-0.009280,-0.056335,0.002083,19.959417,7.566658,2.769364,0.000013,-0.015918,0.111308,9.810262,0.396257,0.000000,0.006362,1
196,20.338477,frame_000196.png,299.908203,-362.282135,-0.009276,-0.104187,0.001059,20.127357,7.524780,2.869839,0.000007,-0.054191,1.496873,9.808623,0.397367,0.000000,0.053737,1
197,20.388477,frame_000197.png,300.284180,-362.138184,-0.009271,-0.166626,0.000096,20.436298,7.510517,2.904233,-0.000005,-0.073778,1.176546,9.806712,0.403373,0.000000,0.036832,1
198,20.438477,frame_000198.png,300.659729,-361.993011,-0.009268,-0.197998,-0.000423,20.690596,7.501917,2.927131,-0.000014,0.008197,0.565243,9.807099,0.404646,0.000000,0.029505,1
199,20.488477,frame_000199.png,301.034943,-361.846954,-0.009269,-0.204193,-0.000273,20.963369,7.494054,2.948591,-0.000015,0.009538,0.395382,9.807220,0.404190,0.000000,0.025118,1
200,20.538477,frame_000200.png,301.409790,-361.699829,-0.009272,-0.192108,0.000041,21.152493,7.489192,2.964708,-0.000012,0.011671,0.478718,9.808008,0.403446,0.000000,0.019593,1
201,20.588477,frame_000201.png,301.784454,-361.552063,-0.009275,-0.170593,0.000649,21.354668,7.483874,2.980206,-0.000005,0.033235,0.306159,9.808689,0.401397,0.000000,0.016731,1
202,20.638477,frame_000202.png,302.158875,-361.403442,-0.009277,-0.143860,0.001161,21.477562,7.481108,2.990781,0.000003,0.025985,0.390602,9.809370,0.400307,0.000000,0.012664,1
203,20.688477,frame_000203.png,302.533081,-361.254333,-0.009279,-0.117371,0.001646,21.621616,7.477285,3.001195,0.000009,0.001533,0.213224,9.809828,0.398335,0.000000,0.011081,1
204,20.738477,frame_000204.png,302.907074,-361.104553,-0.009280,-0.092163,0.001878,21.695450,7.475543,3.007360,0.000011,0.012812,0.290633,9.809880,0.397917,0.000000,0.008125,1
205,20.788477,frame_000205.png,303.280975,-360.954498,-0.009280,-0.070984,0.001953,21.798893,7.472500,3.014039,0.000012,0.011470,0.147712,9.810298,0.396919,0.000000,0.007411,1
206,20.838477,frame_000206.png,303.654694,-360.804016,-0.009279,-0.052856,0.001790,21.839306,7.471269,3.017070,0.000011,-0.014431,0.187328,9.810214,0.397437,0.000000,0.005136,1
207,20.888477,frame_000207.png,304.028351,-360.653442,-0.009278,-0.039062,0.001516,21.915281,7.468810,3.021245,0.000010,0.000367,0.060540,9.810160,0.397431,0.000000,0.004939,1
208,20.938477,frame_000208.png,304.400391,-360.499359,-0.009273,-0.092285,0.000581,22.073559,7.422828,3.121883,0.000005,-0.074390,1.535159,9.808578,0.398497,0.000000,0.054114,1
209,20.988477,frame_000209.png,304.771271,-360.342773,-0.009269,-0.160461,-0.000246,22.379223,7.407415,3.156352,-0.000007,-0.046293,1.149593,9.806881,0.404607,0.000000,0.036982,1
210,21.038477,frame_000210.png,305.141602,-360.184875,-0.009268,-0.196136,-0.000519,22.632877,7.398099,3.179390,-0.000016,0.006193,0.594342,9.806849,0.405536,0.000000,0.029715,1
211,21.088477,frame_000211.png,305.511627,-360.026154,-0.009270,-0.205139,-0.000184,22.906254,7.389704,3.200953,-0.000019,0.004772,0.380481,9.807405,0.404758,0.000000,0.025306,1
212,21.138477,frame_000212.png,305.881287,-359.866364,-0.009273,-0.194611,0.000328,23.096491,7.384393,3.217262,-0.000013,0.034683,0.496890,9.807896,0.403539,0.000000,0.019775,1
213,21.188477,frame_000213.png,306.250732,-359.705933,-0.009276,-0.173767,0.001072,23.299900,7.378633,3.232889,-0.000006,0.029549,0.300189,9.808829,0.401158,0.000000,0.016889,1
214,21.238477,frame_000214.png,306.619843,-359.544647,-0.009279,-0.147125,0.001626,23.424093,7.375467,3.243657,0.000001,0.012178,0.379673,9.809484,0.399779,0.000000,0.012825,1
215,21.288477,frame_000215.png,306.988831,-359.382874,-0.009281,-0.120392,0.002097,23.569456,7.371205,3.254153,0.000007,0.021338,0.218754,9.809867,0.397700,0.000000,0.011230,1
216,21.338477,frame_000216.png,307.357574,-359.220459,-0.009282,-0.094727,0.002240,23.644402,7.369142,3.260328,0.000012,0.017064,0.303659,9.810045,0.397274,0.000000,0.008225,1
217,21.388477,frame_000217.png,307.726166,-359.057800,-0.009281,-0.072968,0.002192,23.748747,7.365732,3.266921,0.000012,-0.005118,0.124162,9.810354,0.396381,0.000000,0.007484,1
218,21.438477,frame_000218.png,308.094513,-358.894653,-0.009280,-0.054352,0.001892,23.790009,7.364206,3.270000,0.000012,-0.014536,0.223500,9.810175,0.397077,0.000000,0.005238,1
219,21.488477,frame_000219.png,308.462830,-358.731384,-0.009278,-0.040283,0.001489,23.866968,7.361390,3.274234,0.000010,-0.001850,0.051569,9.810073,0.397273,0.000000,0.005079,1
220,21.538477,frame_000220.png,308.829437,-358.564758,-0.009273,-0.093811,0.000437,24.027445,7.311350,3.374211,0.000006,-0.071318,1.525964,9.808844,0.398538,0.000000,0.054780,1
221,21.588477,frame_000221.png,309.194702,-358.395508,-0.009268,-0.162689,-0.000458,24.336737,7.294432,3.408656,-0.000006,-0.046157,1.212069,9.806355,0.404920,0.000000,0.037501,1
222,21.638477,frame_000222.png,309.559387,-358.224945,-0.009267,-0.198761,-0.000765,24.594130,7.284173,3.431687,-0.000017,0.002991,0.593479,9.806780,0.405959,0.000000,0.030133,1
223,21.688477,frame_000223.png,309.923737,-358.053619,-0.009269,-0.207886,-0.000396,24.870928,7.274939,3.453264,-0.000019,0.003295,0.375716,9.807253,0.405181,0.000000,0.025666,1
224,21.738477,frame_000224.png,310.287659,-357.881287,-0.009272,-0.197266,0.000164,25.064285,7.268999,3.469731,-0.000014,0.019727,0.477181,9.808034,0.403900,0.000000,0.020106,1
225,21.788477,frame_000225.png,310.651337,-357.708221,-0.009276,-0.176239,0.000984,25.270540,7.262653,3.485467,-0.000007,0.024999,0.317023,9.808660,0.401391,0.000000,0.017183,1
226,21.838477,frame_000226.png,311.014679,-357.534332,-0.009279,-0.149384,0.001612,25.397257,7.259097,3.496386,0.000001,0.037241,0.406541,9.809340,0.399880,0.000000,0.013074,1
227,21.888477,frame_000227.png,311.377838,-357.359955,-0.009281,-0.122375,0.002145,25.544779,7.254452,3.506925,0.000007,0.005806,0.217855,9.809938,0.397661,0.000000,0.011433,1
228,21.938477,frame_000228.png,311.740723,-357.184906,-0.009282,-0.096405,0.002336,25.621607,7.252136,3.513220,0.000010,0.022664,0.294183,9.810143,0.397143,0.000000,0.008409,1
229,21.988477,frame_000229.png,312.103485,-357.009552,-0.009282,-0.074493,0.002302,25.727776,7.248373,3.519969,0.000013,0.002775,0.155913,9.810264,0.396184,0.000000,0.007706,1
230,22.038477,frame_000230.png,312.466003,-356.833832,-0.009280,-0.055634,0.002001,25.770584,7.246723,3.523010,0.000013,-0.020148,0.197089,9.810211,0.396870,0.000000,0.005352,1
231,22.088477,frame_000231.png,312.826874,-356.655029,-0.009275,-0.103546,0.001011,25.984341,7.193570,3.620332,0.000007,-0.049607,1.399186,9.808832,0.397080,0.000000,0.054737,1
232,22.138477,frame_000232.png,313.186218,-356.473480,-0.009270,-0.165497,-0.000061,26.244738,7.176924,3.651222,-0.000006,-0.069669,1.289104,9.806531,0.403756,0.000000,0.035990,1
233,22.188477,frame_000233.png,313.545044,-356.290924,-0.009268,-0.198059,-0.000423,26.547188,7.164560,3.675493,-0.000013,0.008733,0.476648,9.807038,0.404889,0.000000,0.030545,1
234,22.238477,frame_000234.png,313.903412,-356.107361,-0.009269,-0.203888,-0.000396,26.772455,7.156257,3.694004,-0.000016,0.010479,0.477609,9.807356,0.404799,0.000000,0.024246,1
235,22.288477,frame_000235.png,314.261444,-355.923126,-0.009272,-0.192749,0.000109,27.010098,7.148039,3.711723,-0.000012,0.011360,0.341495,9.807884,0.403184,0.000000,0.020608,1
236,22.338477,frame_000236.png,314.619080,-355.737854,-0.009275,-0.170654,0.000642,27.164864,7.143071,3.724658,-0.000004,0.036048,0.471607,9.808731,0.401971,0.000000,0.015858,1
237,22.388477,frame_000237.png,314.976501,-355.552032,-0.009278,-0.144714,0.001291,27.336206,7.137386,3.736980,0.000003,0.021298,0.261538,9.809371,0.399685,0.000000,0.013647,1
238,22.438477,frame_000238.png,315.333557,-355.365448,-0.009280,-0.117462,0.001721,27.432720,7.134426,3.744965,0.000009,0.018518,0.337394,9.809756,0.398765,0.000000,0.010184,1
239,22.488477,frame_000239.png,315.690491,-355.178619,-0.009281,-0.092834,0.002015,27.554670,7.130262,3.752879,0.000011,0.002662,0.150039,9.810044,0.397182,0.000000,0.009030,1
240,22.538477,frame_000240.png,316.047150,-354.991211,-0.009280,-0.070831,0.002022,27.610188,7.128336,3.757161,0.000012,0.009467,0.266916,9.810319,0.397239,0.000000,0.006484,1
241,22.588477,frame_000241.png,316.403656,-354.803619,-0.009279,-0.053345,0.001865,27.698675,7.125001,3.762181,0.000012,-0.016062,0.085499,9.810170,0.396804,0.000000,0.006085,1
242,22.638477,frame_000242.png,316.759979,-354.615723,-0.009278,-0.038879,0.001537,27.726944,7.123712,3.764049,0.000011,-0.014720,0.150099,9.810191,0.397722,0.000000,0.004076,1
243,22.688477,frame_000243.png,317.114563,-354.424866,-0.009273,-0.092133,0.000587,27.931690,7.066515,3.860963,0.000005,-0.056252,1.403875,9.808794,0.398091,0.000000,0.055080,1
244,22.738477,frame_000244.png,317.467529,-354.231232,-0.009269,-0.159698,-0.000396,28.189112,7.048617,3.891805,-0.000007,-0.044538,1.299196,9.806600,0.404792,0.000000,0.036166,1
245,22.788477,frame_000245.png,317.819946,-354.036682,-0.009268,-0.196411,-0.000581,28.491117,7.035484,3.916081,-0.000017,-0.020976,0.477315,9.806865,0.405827,0.000000,0.030754,1
246,22.838477,frame_000246.png,318.171875,-353.841034,-0.009269,-0.205017,-0.000369,28.717180,7.026573,3.934718,-0.000017,0.043881,0.489925,9.807487,0.405363,0.000000,0.024471,1
247,22.888477,frame_000247.png,318.523438,-353.644653,-0.009272,-0.195435,0.000314,28.956156,7.017822,3.952566,-0.000014,0.010139,0.382166,9.807715,0.403436,0.000000,0.020820,1
248,22.938477,frame_000248.png,318.874573,-353.447388,-0.009276,-0.173950,0.000970,29.112333,7.012455,3.965608,-0.000005,0.021926,0.418274,9.808913,0.401846,0.000000,0.016017,1
249,22.988477,frame_000249.png,319.225433,-353.249481,-0.009279,-0.148102,0.001687,29.285206,7.006277,3.978112,0.000002,0.030467,0.283599,9.809223,0.399317,0.000000,0.013850,1
250,23.038477,frame_000250.png,319.575958,-353.050903,-0.009281,-0.120575,0.002111,29.383120,7.002987,3.986145,0.000007,0.020659,0.342030,9.809973,0.398225,0.000000,0.010316,1
251,23.088477,frame_000251.png,319.926331,-352.851959,-0.009282,-0.095520,0.002350,29.506357,6.998407,3.994087,0.000011,0.017137,0.167749,9.810176,0.396609,0.000000,0.009177,1
252,23.138477,frame_000252.png,320.276398,-352.652496,-0.009282,-0.073029,0.002268,29.563194,6.996138,3.998457,0.000012,-0.014011,0.250606,9.810224,0.396731,0.000000,0.006641,1
253,23.188477,frame_000253.png,320.626373,-352.452850,-0.009280,-0.055084,0.001994,29.652838,6.992489,4.003369,0.000012,0.013850,0.093797,9.810341,0.396437,0.000000,0.006189,1
254,23.238477,frame_000254.png,320.976074,-352.252838,-0.009278,-0.040222,0.001537,29.682180,6.990960,4.005268,0.000011,-0.025977,0.182988,9.810059,0.397530,0.000000,0.004197,1
255,23.288477,frame_000255.png,321.323914,-352.049957,-0.009273,-0.093689,0.000492,29.889042,6.929784,4.101000,0.000006,-0.072107,1.395493,9.808892,0.398065,0.000000,0.055700,1
256,23.338477,frame_000256.png,321.669952,-351.844330,-0.009268,-0.161774,-0.000553,30.149757,6.910505,4.131612,-0.000007,-0.066577,1.326839,9.806399,0.405030,0.000000,0.036622,1
257,23.388477,frame_000257.png,322.015503,-351.637756,-0.009267,-0.198822,-0.000792,30.455149,6.896346,4.155719,-0.000018,0.014998,0.454356,9.806789,0.406174,0.000000,0.031142,1
