frame_id,time,image_file,x,y,z,roll,pitch,yaw,rollRate,pitchRate,yawRate,ax,ay,az,throttle,brake,steer,gear
1,0.000000,frame_000001.png,385.684784,-187.945694,0.048701,0.000000,0.000000,90.598579,0.001300,0.001871,-0.000000,0.000000,0.000000,0.450089,1.000000,0.000000,0.000000,0
2,0.300000,frame_000002.png,385.684784,-187.945694,-0.053206,0.000000,0.000000,90.598579,0.000135,0.000035,-0.000000,0.000000,0.000000,24.169228,0.000000,1.000000,0.000000,0
3,0.400000,frame_000003.png,385.684784,-187.945694,-0.048914,0.000000,0.000000,90.598579,-0.000019,-0.000044,-0.000000,0.000000,0.000000,20.429853,0.000000,0.000000,0.000000,0
4,0.500000,frame_000004.png,385.684784,-187.945694,-0.029650,0.000000,0.000000,90.598579,-0.000020,-0.000048,0.000000,0.000000,0.000000,11.307218,0.000000,0.000000,0.000000,0
5,0.600000,frame_000005.png,385.684784,-187.945694,-0.015134,0.000000,0.000000,90.598579,-0.000018,0.000014,0.000000,0.000000,0.000000,9.335274,0.000000,0.000000,0.000000,0
6,0.700000,frame_000006.png,385.684784,-187.945694,-0.006692,0.000000,0.000000,90.598579,-0.000017,-0.000056,0.000000,0.000000,0.000000,9.202471,1.000000,0.000000,0.000000,0
7,0.800000,frame_000007.png,385.684784,-187.945694,-0.002300,0.000000,0.000000,90.598579,-0.000008,-0.000029,0.000000,0.000000,0.000000,9.405079,1.000000,0.000000,0.000000,0
8,0.900000,frame_000008.png,385.684784,-187.945694,-0.000154,0.000000,0.000000,90.598579,0.000004,0.000005,-0.000000,0.000000,0.000000,9.585460,1.000000,0.000000,0.000000,0
9,1.000000,frame_000009.png,385.684784,-187.945694,0.000854,0.000000,0.000000,90.598579,0.000021,0.000064,-0.000000,0.000000,0.000000,9.696114,0.000000,0.000000,0.000000,0
10,1.100000,frame_000010.png,385.684784,-187.945694,0.001314,0.000000,0.000000,90.598579,0.000041,-0.000087,-0.000000,0.000000,0.000000,9.755205,1.000000,0.000000,0.000000,0
11,1.200000,frame_000011.png,385.684143,-187.885284,0.001150,-0.000061,0.044294,90.598305,0.530012,0.005532,-0.000313,5.955386,0.000402,9.773895,0.000000,0.000000,0.000000,0
12,1.300000,frame_000012.png,385.682648,-187.742981,0.001165,-0.000061,0.061226,90.598305,-0.015470,-0.000140,-0.000042,8.258415,-0.001117,9.799970,0.990759,0.000000,0.000000,1
13,1.400000,frame_000013.png,385.680786,-187.561829,0.001254,-0.000061,0.058849,90.598183,0.010451,0.000137,0.022384,3.936522,-0.000983,9.799869,1.000000,0.000000,0.000000,1
14,1.500000,frame_000014.png,385.678223,-187.323105,0.001248,-0.000031,0.066704,90.592827,0.101756,0.000884,0.064343,5.741754,0.003216,9.801116,1.000000,0.000000,0.000000,1
15,1.600000,frame_000015.png,385.675079,-187.018555,0.001235,-0.000031,0.072543,90.593338,-0.033279,-0.000211,-0.000208,6.605258,-0.000768,9.799379,0.000000,0.000000,0.000000,1
16,1.700000,frame_000016.png,385.671539,-186.680801,0.001338,-0.000031,0.056581,90.593353,-0.233927,-0.002351,-0.000036,3.373589,-0.002331,9.803197,0.000000,0.000000,0.000000,1
17,1.800000,frame_000017.png,385.668030,-186.341232,0.001485,-0.000061,0.032368,90.593346,-0.233290,-0.002369,0.000047,0.206806,0.000426,9.808439,0.000000,0.000000,0.000000,1
18,1.900000,frame_000018.png,385.664520,-186.010422,0.001601,-0.000061,0.012977,90.593330,-0.165714,-0.001614,0.000078,-0.885230,0.009201,9.810475,0.000000,0.000000,0.000000,1
19,2.000000,frame_000019.png,385.661255,-185.691406,0.001675,-0.000061,0.000451,90.593330,-0.103062,-0.001080,0.000080,-1.193842,-0.010127,9.810655,0.000000,0.000000,0.000000,1
20,2.100000,frame_000020.png,385.658112,-185.384842,0.001718,-0.000061,-0.006837,90.593330,-0.060119,-0.000579,0.000069,-1.257534,-0.004480,9.810378,0.000000,0.000000,0.000000,1
21,2.200000,frame_000021.png,385.654999,-185.090607,0.001741,-0.000061,-0.010771,90.593330,-0.033730,-0.000436,0.000059,-1.239278,0.012825,9.810109,0.000000,0.000000,0.000000,1
22,2.300000,frame_000022.png,385.652130,-184.808334,0.001749,-0.000061,-0.012089,90.593330,0.024489,0.000236,0.000011,-1.207289,-0.015010,9.810048,1.000000,0.000000,0.000000,1
23,2.400000,frame_000023.png,385.649078,-184.518448,0.001678,-0.000061,0.000068,90.593330,0.198170,0.002112,-0.000179,0.733930,0.012411,9.811483,1.000000,0.000000,0.000000,1
24,2.500000,frame_000024.png,385.645660,-184.184097,0.001523,-0.000061,0.026522,90.593338,0.281695,0.002834,-0.000345,4.423417,-0.010750,9.809526,1.000000,0.000000,0.000000,1
25,2.600000,frame_000025.png,385.641541,-183.790390,0.001407,-0.000061,0.046295,90.593338,0.081317,0.000853,-0.000236,5.954580,0.008430,9.804460,0.000000,0.000000,0.000000,1
26,2.700000,frame_000026.png,385.637268,-183.369217,0.001451,-0.000061,0.038795,90.593338,-0.164996,-0.001651,0.000030,2.812946,-0.009051,9.805080,0.000000,0.000000,0.000000,1
27,2.800000,frame_000027.png,385.632965,-182.948792,0.001549,-0.000061,0.022116,90.593338,-0.122040,-0.001201,-0.000016,-0.052461,0.000593,9.808987,1.000000,0.000000,0.000000,1
28,2.900000,frame_000028.png,385.628662,-182.524170,0.001592,-0.000061,0.014664,90.593330,-0.074815,-0.000768,-0.000004,0.401240,-0.004119,9.810923,0.000000,0.000000,0.000000,1
29,3.000000,frame_000029.png,385.624359,-182.103592,0.001650,-0.000061,0.004897,90.593330,-0.103067,-0.001093,0.000069,-0.395364,0.006614,9.809780,0.000000,0.000000,0.000000,1
30,3.100000,frame_000030.png,385.620056,-181.693558,0.001692,-0.000061,-0.002322,90.593330,-0.018028,-0.000218,0.000010,-1.061616,0.008500,9.810250,1.000000,0.000000,0.000000,1
31,3.200000,frame_000031.png,385.615784,-181.282150,0.001681,-0.000061,-0.000519,90.593330,0.006527,0.000046,0.000002,0.118655,-0.001219,9.810987,0.000000,0.000000,0.000000,1
32,3.300000,frame_000032.png,385.611481,-180.872620,0.001686,-0.000061,-0.001373,90.593330,0.014467,0.000086,-0.000014,-0.183975,0.001913,9.809694,1.000000,0.000000,0.000000,1
33,3.400000,frame_000033.png,385.607178,-180.458862,0.001669,-0.000061,0.001632,90.593330,0.006921,0.000100,-0.000006,0.415257,-0.004287,9.810438,0.000000,0.000000,0.000000,1
34,3.500000,frame_000034.png,385.602875,-180.046188,0.001676,-0.000061,0.000348,90.593330,0.007904,0.000046,-0.000016,-0.097435,0.001020,9.809522,1.000000,0.000000,0.000000,1
35,3.600000,frame_000035.png,385.598572,-179.629120,0.001663,-0.000061,0.002712,90.593330,0.000968,-0.000011,-0.000006,0.430441,-0.004442,9.810371,0.000000,0.000000,0.000000,1
36,3.700000,frame_000036.png,385.594299,-179.215790,0.001687,-0.000061,-0.001496,90.593330,-0.060768,-0.000539,0.000067,-0.359013,0.001226,9.809268,0.000000,0.000000,0.000000,1
37,3.800000,frame_000037.png,385.589996,-178.812851,0.001712,-0.000061,-0.005676,90.593330,0.004794,0.000084,0.000007,-1.040890,0.013280,9.809906,1.000000,0.000000,0.000000,1
38,3.900000,frame_000038.png,385.585693,-178.408264,0.001692,-0.000061,-0.002227,90.593330,0.018957,0.000126,0.000001,0.148361,-0.001530,9.810846,0.000000,0.000000,0.000000,1
39,4.000000,frame_000039.png,385.581451,-178.008026,0.001705,-0.000061,-0.004576,90.593330,-0.042429,-0.000447,0.000064,-0.423287,0.001886,9.809322,0.000000,0.000000,0.000000,1
40,4.100000,frame_000040.png,385.577545,-177.620407,0.001734,-0.000061,-0.009521,90.593330,-0.044407,-0.000475,0.000085,-1.258201,-0.024479,9.809508,0.000000,0.000000,0.000000,1
41,4.200000,frame_000041.png,385.573639,-177.245255,0.001745,-0.000061,-0.011413,90.593330,0.030681,0.000211,0.000008,-1.255637,0.012993,9.810073,1.000000,0.000000,0.000000,1
42,4.300000,frame_000042.png,385.569672,-176.861786,0.001673,-0.000061,0.000854,90.593330,0.207509,0.002199,-0.000201,0.801405,-0.003287,9.811589,1.000000,0.000000,0.000000,1
43,4.400000,frame_000043.png,385.565216,-176.435410,0.001529,-0.000061,0.025524,90.593338,0.252932,0.002566,-0.000358,4.273357,0.000803,9.809455,1.000000,0.000000,0.000000,1
44,4.500000,frame_000044.png,385.560272,-175.954315,0.001423,-0.000061,0.043515,90.593338,0.073812,0.000717,-0.000268,5.489000,0.000746,9.805102,0.000000,0.000000,0.000000,1
45,4.600000,frame_000045.png,385.555115,-175.447571,0.001784,-0.000061,0.035203,90.593300,-0.198843,-0.001996,-0.000354,2.627335,-0.009633,9.836690,0.804176,0.000000,0.000000,1
46,4.700000,frame_000046.png,385.550018,-174.944336,0.001841,-0.000061,0.019568,90.593330,-0.108605,-0.001157,-0.000125,-0.330471,-0.004033,9.774577,0.000000,0.000000,0.000000,1
47,4.800000,frame_000047.png,385.544952,-174.443283,0.001779,-0.000061,0.008941,90.593330,-0.089415,-0.000842,-0.000089,-0.228406,0.007392,9.801696,0.000000,0.000000,0.000000,1
48,4.900000,frame_000048.png,385.539886,-173.948593,0.001577,-0.000061,0.002138,90.593330,-0.026881,-0.000329,-0.000004,-0.643402,0.001677,9.798589,1.000000,0.000000,0.000000,1
49,5.000000,frame_000049.png,385.534790,-173.451614,0.001571,-0.000061,0.002274,90.593330,-0.017817,-0.000149,0.000011,0.214129,-0.002203,9.834514,0.000000,0.000000,0.000000,1
50,5.100000,frame_000050.png,385.529724,-172.958298,0.001623,-0.000061,-0.000765,90.593330,-0.006789,-0.000092,0.000002,-0.360111,0.003738,9.813550,1.000000,0.000000,0.000000,1
51,5.200000,frame_000051.png,385.524567,-172.455719,0.001815,-0.000061,0.007930,90.593330,0.181479,0.001865,-0.000208,0.902666,0.000677,9.832102,1.000000,0.000000,0.000000,1
52,5.300000,frame_000052.png,385.519104,-171.930466,0.001902,-0.000061,0.014480,90.593307,0.050499,0.000570,-0.000193,2.275113,0.001477,9.797395,1.000000,0.000000,0.000000,1
53,5.400000,frame_000053.png,385.513428,-171.384872,0.001821,-0.000061,0.021447,90.593307,0.068025,0.000785,-0.000417,2.037540,0.001450,9.792754,0.000000,0.000000,0.000000,1
54,5.500000,frame_000054.png,385.507568,-170.822906,0.001790,-0.000061,0.019200,90.593307,-0.031937,-0.000245,-0.000148,1.659681,0.005359,9.807970,0.934004,0.000000,0.000000,1
55,5.600000,frame_000055.png,385.501709,-170.249893,0.001764,-0.000061,0.018885,90.593307,0.080142,0.000808,-0.000313,1.104399,-0.013893,9.811512,1.000000,0.000000,0.000000,1
56,5.700000,frame_000056.png,385.495453,-169.646820,0.001695,-0.000061,0.028086,90.593285,0.071586,0.000753,-0.000260,2.992563,0.009074,9.810859,0.000000,0.000000,0.000000,1
57,5.800000,frame_000057.png,385.488983,-169.023361,0.001706,-0.000061,0.024800,90.593285,-0.051317,-0.000582,-0.000177,2.065618,0.001166,9.808492,0.472302,0.000000,0.000000,1
58,5.900000,frame_000058.png,385.482330,-168.393478,0.001749,-0.000061,0.016816,90.593307,-0.086081,-0.000867,-0.000038,0.656775,0.010740,9.809643,0.000000,0.000000,0.000000,1
59,6.000000,frame_000059.png,385.475861,-167.770248,0.001819,-0.000061,0.004617,90.593307,-0.105604,-0.001041,0.000082,-0.655554,-0.005693,9.809791,0.000000,0.000000,0.000000,1
60,6.100000,frame_000060.png,385.469604,-167.162613,0.001880,-0.000061,-0.005894,90.593307,-0.049580,-0.000575,0.000159,-1.564959,-0.011295,9.810113,1.000000,0.000000,0.000000,1
61,6.200000,frame_000061.png,385.463348,-166.566437,0.001898,-0.000061,-0.009125,90.593307,-0.004284,0.000064,0.000095,-1.161500,0.012022,9.810684,0.000000,0.000000,0.000000,1
62,6.300000,frame_000062.png,385.457336,-165.982574,0.001915,-0.000061,-0.012117,90.593307,0.006858,0.000063,0.000125,-1.234741,-0.009726,9.809770,1.000000,0.000000,0.000000,1
63,6.400000,frame_000063.png,385.451477,-165.404587,0.001890,-0.000061,-0.007780,90.593307,0.130579,0.001293,-0.000090,-0.605231,-0.011237,9.810768,1.000000,0.000000,0.000000,1
64,6.500000,frame_000064.png,385.445251,-164.808762,0.001804,-0.000061,0.006885,90.593307,0.137644,0.001417,-0.000234,1.765197,0.016745,9.810951,0.000000,0.000000,0.000000,1
65,6.600000,frame_000065.png,385.439026,-164.198303,0.001785,-0.000061,0.010136,90.593307,0.012489,0.000112,-0.000137,1.487931,-0.012880,9.808459,0.656120,0.000000,0.000000,1
66,6.700000,frame_000066.png,385.432770,-163.582321,0.001794,-0.000061,0.008572,90.593307,-0.025151,-0.000335,-0.000074,0.565239,-0.000827,9.809370,0.000000,0.000000,0.000000,1
67,6.800000,frame_000067.png,385.426514,-162.969925,0.001831,-0.000061,0.002186,90.593307,-0.035986,-0.000338,0.000052,-0.350883,0.001148,9.809486,0.956081,0.000000,0.000000,1
68,6.900000,frame_000068.png,385.420258,-162.362213,0.001850,-0.000061,-0.001100,90.593307,-0.017930,-0.000145,0.000047,-0.472663,0.004903,9.810324,0.000000,0.000000,0.000000,1
69,7.000000,frame_000069.png,385.414001,-161.764511,0.001886,-0.000061,-0.007110,90.593307,-0.047512,-0.000496,0.000113,-0.997414,0.010327,9.809604,0.000000,0.000000,0.000000,1
70,7.100000,frame_000070.png,385.408081,-161.184845,0.001928,-0.000061,-0.014282,90.593307,-0.041581,-0.000486,0.000212,-1.802660,-0.011349,9.809395,0.000000,0.000000,0.000000,1
71,7.200000,frame_000071.png,385.402222,-160.626007,0.001956,-0.000061,-0.019138,90.593307,0.004949,0.000000,0.000227,-2.093268,0.011653,9.809576,1.000000,0.000000,0.000000,1
72,7.300000,frame_000072.png,385.396515,-160.078568,0.001931,-0.000061,-0.014774,90.593307,0.133806,0.001438,-0.000034,-1.157623,-0.003029,9.810728,1.000000,0.000000,0.000000,1
73,7.400000,frame_000073.png,385.390656,-159.517883,0.001841,-0.000061,0.000615,90.593307,0.152352,0.001635,-0.000250,1.297717,0.004074,9.811226,0.000000,0.000000,0.000000,1
74,7.500000,frame_000074.png,385.384796,-158.946411,0.001821,-0.000061,0.003968,90.593307,-0.010189,-0.000223,-0.000073,1.104344,-0.013919,9.808577,0.000000,0.000000,0.000000,1
75,7.600000,frame_000075.png,385.378937,-158.382202,0.001859,-0.000061,-0.002623,90.593307,-0.057232,-0.000619,0.000120,-0.702886,0.009785,9.808835,0.000000,0.000000,0.000000,1
76,7.700000,frame_000076.png,385.373230,-157.834091,0.001907,-0.000061,-0.010682,90.593307,-0.049915,-0.000478,0.000201,-1.611924,-0.000817,9.809553,0.000000,0.000000,0.000000,1
77,7.800000,frame_000077.png,385.367767,-157.306290,0.001946,-0.000061,-0.017369,90.593307,-0.028621,-0.000240,0.000178,-2.034373,-0.003955,9.809531,0.000000,0.000000,0.000000,1
78,7.900000,frame_000078.png,385.362518,-156.799530,0.001903,-0.000061,-0.020600,90.593285,0.071868,0.000788,0.000321,-2.116118,0.001886,9.803430,1.000000,0.000000,0.000000,1
79,8.000000,frame_000079.png,385.357452,-156.295853,0.001872,-0.000061,-0.012424,90.593307,0.146083,0.001509,-0.000142,-0.332292,-0.014071,9.819070,0.000000,0.000000,0.000000,1
80,8.100000,frame_000080.png,385.370972,-155.797409,0.001636,0.065895,-0.009829,89.727295,0.038703,-0.949626,-17.938673,-1.108096,-2.344098,9.828780,1.000000,0.000000,-0.222222,1
81,8.200000,frame_000081.png,385.395447,-155.295166,0.001865,0.013751,-0.004030,88.912170,-0.045264,0.484075,-6.008080,0.425218,-1.296994,9.776106,0.000000,0.000000,0.000000,1
82,8.300000,frame_000082.png,385.427612,-154.799240,0.001622,0.063464,-0.005464,87.925583,-0.039014,-0.840900,-18.231253,-0.720400,-0.694877,9.827811,1.000000,0.000000,-0.222222,1
83,8.400000,frame_000083.png,385.468231,-154.301727,0.001807,0.006677,-0.001373,87.130966,0.029634,0.631524,-1.035195,0.313605,-0.919082,9.782431,0.000000,0.000000,0.000000,1
84,8.500000,frame_000084.png,385.514984,-153.809921,0.001659,0.058294,-0.004638,86.173409,-0.090712,-0.863239,-18.046593,-0.639431,-0.538818,9.846516,1.000000,0.000000,-0.222222,1
85,8.600000,frame_000085.png,385.600372,-153.318176,0.001735,0.098377,0.002889,84.042747,0.167107,-0.165389,-22.723499,-0.439551,-4.700337,9.823832,1.000000,0.000000,-0.222222,1
86,8.700000,frame_000086.png,385.713715,-152.799179,0.001868,0.098268,0.017034,81.712097,0.042772,0.037134,-20.974707,2.898276,-2.558475,9.787051,1.000000,0.000000,-0.222222,1
87,8.800000,frame_000087.png,385.827728,-152.245911,0.001779,0.008420,0.028557,80.621864,0.051312,0.681378,-1.481611,4.208689,1.224976,9.721610,0.000000,0.000000,0.000000,1
88,8.900000,frame_000088.png,385.947144,-151.673218,0.001767,0.053781,0.023489,79.702782,-0.322928,-0.914478,-16.235010,2.140541,0.223868,9.899612,0.722519,0.000000,-0.222222,1
89,9.000000,frame_000089.png,386.106079,-151.101578,0.001762,0.100101,0.019391,77.487785,-0.108668,-0.169295,-22.761776,-0.140428,-4.804478,9.803740,1.000000,0.000000,-0.222222,1
90,9.100000,frame_000090.png,386.276001,-150.496811,0.001683,0.017871,0.030155,76.294022,0.178724,0.717348,-1.780942,4.112548,0.211282,9.721321,0.000000,0.000000,0.000000,1
91,9.200000,frame_000091.png,386.434845,-149.872482,0.001723,-0.010681,0.022034,76.222160,-0.205539,0.133981,2.220582,2.448101,2.451966,9.844627,0.000000,0.000000,0.000000,1
92,9.300000,frame_000092.png,386.587616,-149.256393,0.001814,-0.011963,0.005772,76.302673,-0.234819,0.038873,2.820759,-0.818548,0.556253,9.828512,0.000000,0.000000,0.000000,1
93,9.400000,frame_000093.png,386.733795,-148.659760,0.001897,-0.009705,-0.008702,76.388374,-0.203974,0.019947,2.790346,-2.050715,0.199969,9.812488,0.000000,0.000000,0.000000,1
94,9.500000,frame_000094.png,386.872894,-148.086929,0.001956,-0.007507,-0.018913,76.465820,-0.163280,0.012423,2.738541,-2.494334,0.121650,9.809709,0.000000,0.000000,0.000000,1
95,9.600000,frame_000095.png,387.021362,-147.544388,0.001996,0.059772,-0.025818,75.700966,-0.346116,-0.826701,-14.527724,-3.301156,-2.122445,9.852145,1.000000,0.000000,-0.222222,1
96,9.700000,frame_000096.png,387.203674,-147.027618,0.001962,0.101937,-0.020081,73.638039,0.019426,-0.168980,-20.629248,-2.439567,-4.956198,9.784113,1.000000,0.000000,-0.222222,1
97,9.800000,frame_000097.png,387.394165,-146.490997,0.001832,0.018428,0.001974,72.593163,0.361780,0.656968,-0.602216,2.766999,0.306198,9.724408,0.000000,0.000000,0.000000,1
98,9.900000,frame_000098.png,387.592224,-145.940033,0.001807,0.059613,0.006291,71.671913,-0.378787,-0.690336,-15.660707,1.702972,0.087329,9.894813,0.642934,0.000000,-0.222222,1
99,10.000000,frame_000099.png,387.803467,-145.387939,0.001804,0.013911,0.006810,70.754318,0.105466,0.577689,-0.434821,0.549651,-1.383775,9.748573,0.000000,0.000000,0.000000,1
100,10.100000,frame_000100.png,387.983948,-144.832291,0.001856,-0.076202,-0.001988,71.586388,0.103019,0.916403,19.745050,0.609553,4.168402,9.772367,1.000000,0.000000,0.222222,1
101,10.200000,frame_000101.png,388.119720,-144.268723,0.001849,-0.122498,-0.000765,73.944321,0.135292,0.183913,27.680716,0.591987,5.683150,9.829443,1.000000,0.000000,0.222222,1
102,10.300000,frame_000102.png,388.229248,-143.668594,0.001738,-0.132019,0.018148,76.634178,0.176329,0.000832,29.677116,3.092611,3.804274,9.828056,1.000000,0.000000,0.222222,1
103,10.400000,frame_000103.png,388.344666,-143.026093,0.001661,-0.036346,0.031139,78.092964,-0.130453,-0.802211,8.403522,3.347203,-0.259960,9.881426,0.000000,0.000000,0.000000,1
104,10.500000,frame_000104.png,388.458221,-142.366058,0.001705,-0.076721,0.023817,79.278763,0.041599,0.889766,23.683161,1.507261,0.076254,9.711791,0.394920,0.000000,0.222222,1
105,10.600000,frame_000105.png,388.528168,-141.698105,0.001756,-0.124695,0.015122,81.871658,0.011828,0.246647,31.274904,1.160641,5.421815,9.792312,0.934450,0.000000,0.222222,1
106,10.700000,frame_000106.png,388.591461,-141.010254,0.001729,-0.040802,0.019548,83.407784,-0.065848,-0.759818,9.026939,1.069866,0.512831,9.903111,0.000000,0.000000,0.000000,1
107,10.800000,frame_000107.png,388.647186,-140.311890,0.001766,-0.083710,0.013333,84.645782,-0.015835,0.907915,24.246664,0.753822,0.421106,9.719347,0.487900,0.000000,0.222222,1
108,10.900000,frame_000108.png,388.684723,-139.613876,0.001804,-0.036346,0.006762,85.931114,-0.121232,-0.600483,8.586552,-0.142510,2.061248,9.871769,0.000000,0.000000,0.000000,1
109,11.000000,frame_000109.png,388.710785,-138.925720,0.001866,-0.082275,-0.003634,87.116982,-0.060453,0.882467,23.680948,-1.127518,0.868394,9.742999,0.975011,0.000000,0.222222,1
110,11.100000,frame_000110.png,388.718536,-138.248154,0.001886,-0.035919,-0.007172,88.362152,-0.047108,-0.597778,8.473980,-1.097691,2.053188,9.873890,0.000000,0.000000,0.000000,1
111,11.200000,frame_000111.png,388.734100,-137.583115,0.001915,-0.008850,-0.012117,88.587914,-0.063744,-0.110965,4.272393,-1.960812,-1.544726,9.796183,0.000000,0.000000,0.000000,1
112,11.300000,frame_000112.png,388.749878,-136.938400,0.001952,-0.003693,-0.018401,88.628555,-0.061564,-0.027212,3.576517,-2.161668,-0.243601,9.793854,0.000000,0.000000,0.000000,1
113,11.400000,frame_000113.png,388.764954,-136.317734,0.001984,-0.002136,-0.023776,88.636208,-0.046875,-0.014556,3.504279,-2.435523,-0.020010,9.806550,0.000000,0.000000,0.000000,1
114,11.500000,frame_000114.png,388.779327,-135.722717,0.002006,-0.001312,-0.027526,88.637871,-0.030671,-0.011569,3.545844,-2.575472,0.001615,9.808462,0.000000,0.000000,0.000000,1
115,11.600000,frame_000115.png,388.793121,-135.153732,0.002019,-0.000824,-0.029821,88.638397,-0.017205,-0.009881,3.605978,-2.615852,0.000604,9.808553,0.000000,0.000000,0.000000,1
116,11.700000,frame_000116.png,388.806213,-134.610626,0.002026,-0.000488,-0.030913,88.638641,-0.006763,-0.008533,3.652074,-2.593606,0.003592,9.808632,0.000000,0.000000,0.000000,1
117,11.800000,frame_000117.png,388.803467,-134.093857,0.002034,-0.058258,-0.032348,89.394341,-0.002318,0.747367,19.105158,-2.127604,1.970109,9.766168,1.000000,0.000000,0.222222,1
118,11.900000,frame_000118.png,388.789612,-133.590683,0.001964,-0.014587,-0.023134,90.157539,0.052935,-0.441384,2.625059,-1.379063,1.341301,9.879573,0.000000,0.000000,0.000000,1
119,12.000000,frame_000119.png,388.786194,-133.091690,0.001686,0.003131,-0.016297,90.242332,0.050131,-0.046773,0.126744,-0.901911,-1.566745,9.769063,0.000000,0.000000,0.000000,1
120,12.100000,frame_000120.png,388.784027,-132.602432,0.001626,0.003508,-0.015136,90.245766,-0.013522,0.012098,0.001680,-1.018506,-0.211245,9.815481,0.000000,0.000000,0.000000,1
121,12.200000,frame_000121.png,388.782074,-132.129639,0.001684,0.002194,-0.017581,90.245888,-0.027750,0.011789,-0.001987,-1.646876,-0.023321,9.817571,0.000000,0.000000,0.000000,1
122,12.300000,frame_000122.png,388.799438,-131.675323,0.001740,0.065513,-0.019773,89.369904,-0.002838,-0.821666,-16.927708,-2.436778,-2.445672,9.851350,1.000000,0.000000,-0.222222,1
123,12.400000,frame_000123.png,388.824707,-131.224854,0.001722,0.013334,-0.012206,88.658142,0.074088,0.596355,-1.134694,-0.280680,-0.919040,9.728711,0.000000,0.000000,0.000000,1
124,12.500000,frame_000124.png,388.855804,-130.780334,0.001729,0.056410,-0.010833,87.758026,-0.022976,-0.785829,-16.992718,-0.697813,-0.542354,9.873832,1.000000,0.000000,-0.222222,1
125,12.600000,frame_000125.png,388.921936,-130.333359,0.001674,0.089118,-0.000396,85.791031,0.179886,-0.093394,-20.880535,-0.261154,-4.250828,9.796387,1.000000,0.000000,-0.222222,1
126,12.700000,frame_000126.png,388.983704,-129.848526,0.001628,0.001914,0.020088,84.915451,0.246688,0.917939,-1.533542,4.435297,1.317640,9.732816,0.000000,0.000000,0.000000,1
127,12.800000,frame_000127.png,389.049927,-129.348145,0.001853,0.048829,0.016420,83.978165,-0.216172,-0.993692,-17.705952,1.588626,-0.039760,9.913128,1.000000,0.000000,-0.222222,1
128,12.900000,frame_000128.png,389.153381,-128.849472,0.001873,0.091466,0.013585,81.826210,-0.055693,-0.148565,-23.242134,-0.482279,-4.580894,9.780002,1.000000,0.000000,-0.222222,1
129,13.000000,frame_000129.png,389.281250,-128.342270,0.001837,0.091258,0.015382,79.515320,0.002154,0.015097,-25.212833,1.117774,-2.407582,9.773574,1.000000,0.000000,-0.222222,1
130,13.100000,frame_000130.png,389.447418,-127.783913,0.001640,0.106043,0.043010,76.933960,0.203431,-0.148180,-24.834011,5.542525,-2.685881,9.813252,1.000000,0.000000,-0.222222,1
131,13.200000,frame_000131.png,389.654999,-127.181221,0.001574,0.114742,0.050222,74.134544,-0.048253,-0.058869,-25.905449,5.217610,-2.879529,9.794400,0.613426,0.000000,-0.222222,1
132,13.300000,frame_000132.png,389.873627,-126.548454,0.001600,0.025854,0.043754,72.613625,0.099529,0.768713,-2.691743,4.034698,0.612176,9.738870,0.000000,0.000000,0.000000,1
133,13.400000,frame_000133.png,390.099213,-125.912643,0.001705,0.069982,0.024862,71.407944,-0.481894,-0.804320,-17.695158,0.725005,-0.049251,9.901500,1.000000,0.000000,-0.222222,1
134,13.500000,frame_000134.png,390.365814,-125.294884,0.001760,0.121758,0.014842,68.810471,-0.109994,-0.270211,-25.692657,-1.187526,-5.447931,9.805218,1.000000,0.000000,-0.222222,1
135,13.600000,frame_000135.png,390.650604,-124.657928,0.001712,0.039337,0.022765,67.277145,0.344626,0.685762,-2.957835,3.110751,-0.413106,9.717311,0.000000,0.000000,0.000000,1
136,13.700000,frame_000136.png,390.949524,-124.010765,0.001741,0.084185,0.017677,66.023430,-0.477364,-0.810475,-18.826967,1.693572,-0.398180,9.896179,1.000000,0.000000,-0.222222,1
137,13.800000,frame_000137.png,391.266205,-123.369522,0.001776,0.036980,0.011584,64.718094,0.196861,0.590556,-2.319805,0.176944,-2.080209,9.744386,0.000000,0.000000,0.000000,1
138,13.900000,frame_000138.png,391.589905,-122.739746,0.001841,0.084547,0.000615,63.504089,-0.519441,-0.770724,-18.198425,-0.665037,-0.868507,9.874215,1.000000,0.000000,-0.222222,1
139,14.000000,frame_000139.png,391.925964,-122.127182,0.001867,0.038028,-0.003968,62.222492,0.247425,0.556446,-2.170628,-1.022517,-2.132705,9.743731,0.000000,0.000000,0.000000,1
140,14.100000,frame_000140.png,392.231171,-121.517296,0.001930,-0.058746,-0.014555,62.888466,0.322408,0.977680,20.647024,-0.275402,3.889407,9.770118,0.000000,1.000000,0.222222,1
141,14.200000,frame_000141.png,392.481506,-120.920723,0.002005,-0.110931,-0.027348,65.230942,0.010280,0.216073,29.362059,-2.308916,5.693156,9.828609,0.000000,0.112894,0.222222,1
142,14.300000,frame_000142.png,392.689331,-120.338348,0.002031,-0.118530,-0.031801,67.917946,-0.021054,-0.008793,30.345036,-2.750179,3.833203,9.832745,0.130966,0.000000,0.222222,1
143,14.400000,frame_000143.png,392.860962,-119.768700,0.002032,-0.115753,-0.031958,70.593307,-0.012024,-0.063668,29.828812,-2.506757,3.117202,9.810091,0.137519,0.000000,0.222222,1
144,14.500000,frame_000144.png,393.000153,-119.211296,0.002023,-0.110626,-0.030428,73.195702,0.000081,-0.076923,29.116903,-2.255490,2.817895,9.805257,0.183506,0.000000,0.222222,1
145,14.600000,frame_000145.png,393.132690,-118.670448,0.002006,-0.026886,-0.027621,74.576912,-0.173325,-0.674409,9.110675,-2.708956,-0.406856,9.864055,0.000000,0.000000,0.000000,1
146,14.700000,frame_000146.png,393.255707,-118.149345,0.002010,-0.058716,-0.028140,75.586243,0.159928,0.671268,20.481062,-2.435908,-0.041824,9.727623,0.343762,0.000000,0.222222,1
147,14.800000,frame_000147.png,393.341156,-117.640282,0.001995,-0.091614,-0.025661,77.665352,0.080095,0.077081,25.932592,-1.243741,4.179545,9.802256,0.530084,0.000000,0.222222,1
148,14.900000,frame_000148.png,393.423950,-117.136681,0.001948,-0.017120,-0.017731,78.830185,-0.072816,-0.622958,7.917345,-1.282988,-0.206457,9.885476,0.000000,0.000000,0.000000,1
149,15.000000,frame_000149.png,393.517242,-116.642601,0.001881,0.007108,-0.013401,78.953705,0.086011,-0.107211,0.611249,-1.471757,-2.038002,9.769668,0.000000,0.000000,0.000000,1
150,15.100000,frame_000150.png,393.593262,-116.148903,0.001636,-0.060181,-0.009740,79.864952,0.198313,0.920556,18.130234,0.212266,2.059842,9.725545,0.311493,0.000000,0.222222,1
151,15.200000,frame_000151.png,393.659180,-115.654091,0.001622,-0.011475,-0.006134,80.648911,-0.096506,-0.565492,1.354955,-0.151248,1.183280,9.913966,0.000000,0.000000,0.000000,1
152,15.300000,frame_000152.png,393.736908,-115.171608,0.001634,0.009132,-0.009740,80.680435,-0.055751,-0.021109,0.040141,-1.541192,-1.951612,9.787416,0.000000,0.000000,0.000000,1
153,15.400000,frame_000153.png,393.813202,-114.706131,0.001700,0.007297,-0.014862,80.681320,-0.040951,0.039511,0.000507,-1.723070,-0.199967,9.798102,0.000000,0.000000,0.000000,1
154,15.500000,frame_000154.png,393.867584,-114.256004,0.001751,-0.059753,-0.018339,81.556046,0.122425,0.842581,16.894405,-1.232558,2.418253,9.761084,0.827527,0.000000,0.222222,1
155,15.600000,frame_000155.png,393.913513,-113.808426,0.001727,-0.009979,-0.011413,82.265427,-0.023128,-0.580089,1.103146,-0.510956,0.944297,9.891366,0.000000,0.000000,0.000000,1
156,15.700000,frame_000156.png,393.971954,-113.368301,0.001732,0.009416,-0.010682,82.288322,-0.020825,-0.018011,0.182953,-1.043161,-1.878316,9.786695,0.000000,0.000000,0.000000,1
157,15.800000,frame_000157.png,394.010956,-112.940239,0.001755,-0.054840,-0.013674,83.140106,0.089899,0.821039,16.545057,-0.843448,2.186956,9.748384,0.874587,0.000000,0.222222,1
158,15.900000,frame_000158.png,394.015930,-112.506569,0.001696,-0.087158,-0.003265,85.040390,0.198381,0.049153,20.131865,0.975857,4.262773,9.827099,0.980055,0.000000,0.222222,1
159,16.000000,frame_000159.png,394.002930,-112.037842,0.001584,-0.087585,0.015989,87.149773,0.129135,-0.026126,21.687222,3.505093,2.241937,9.828810,0.237746,0.000000,0.222222,1
160,16.100000,frame_000160.png,394.000397,-111.548256,0.001572,0.001076,0.018120,88.050270,-0.094467,-0.707621,1.626270,1.266798,-1.593114,9.869912,0.000000,0.000000,0.000000,1
161,16.200000,frame_000161.png,394.014587,-111.064682,0.001639,0.021905,0.006714,88.088135,-0.127495,0.020708,0.047245,-1.126032,-2.430187,9.760220,0.000000,0.000000,0.000000,1
162,16.300000,frame_000162.png,394.010498,-110.596222,0.001706,-0.050140,-0.004638,88.981682,-0.057302,0.925607,17.284420,-0.942511,2.207138,9.743113,0.726911,0.000000,0.222222,1
163,16.400000,frame_000163.png,393.997803,-110.130875,0.001699,-0.004883,-0.003511,89.720093,0.004588,-0.555720,1.182793,-0.458022,1.006120,9.893226,0.000000,0.000000,0.000000,1
164,16.500000,frame_000164.png,393.978943,-109.671471,0.001715,-0.052460,-0.006134,90.638374,-0.032844,0.833785,17.265484,-0.464775,0.574124,9.744156,0.572388,0.000000,0.222222,1
165,16.600000,frame_000165.png,393.952972,-109.212608,0.001695,-0.004150,-0.002869,91.369324,0.027386,-0.557826,1.203965,-0.186737,0.787891,9.877551,0.000000,0.000000,0.000000,1
166,16.700000,frame_000166.png,393.940643,-108.758835,0.001712,0.013310,-0.005710,91.394547,-0.050981,-0.003416,0.233259,-1.027655,-1.907852,9.787220,0.000000,0.000000,0.000000,1
167,16.800000,frame_000167.png,393.911011,-108.320251,0.001744,-0.053314,-0.011051,92.255692,-0.061213,0.851889,16.754614,-0.859687,2.209540,9.748798,0.925865,0.000000,0.222222,1
168,16.900000,frame_000168.png,393.874146,-107.884247,0.001717,-0.005768,-0.006530,92.944199,0.062264,-0.543314,1.126506,-0.368689,0.861010,9.890682,0.000000,0.000000,0.000000,1
169,17.000000,frame_000169.png,393.850616,-107.452545,0.001723,0.011388,-0.007568,92.965462,-0.035654,-0.008903,0.368344,-0.957789,-1.842427,9.787702,0.000000,0.000000,0.000000,1
170,17.100000,frame_000170.png,393.810699,-107.035721,0.001747,-0.052429,-0.011659,93.798615,-0.072324,0.810586,16.301815,-0.801535,2.136568,9.750983,1.000000,0.000000,0.222222,1
171,17.200000,frame_000171.png,393.764496,-106.620888,0.001716,-0.005005,-0.006502,94.452690,0.077590,-0.518961,1.239457,-0.300674,0.758908,9.888611,0.000000,0.000000,0.000000,1
172,17.300000,frame_000172.png,393.713043,-106.210800,0.001718,-0.049255,-0.006776,95.302345,-0.076898,0.760293,16.269997,-0.284228,0.529266,9.744897,0.904714,0.000000,0.222222,1
173,17.400000,frame_000173.png,393.656006,-105.799538,0.001690,-0.001587,-0.002015,95.953033,0.077737,-0.504299,1.234960,0.017383,0.604191,9.874740,0.000000,0.000000,0.000000,1
174,17.500000,frame_000174.png,393.612091,-105.390366,0.001703,0.013305,-0.004119,95.972359,-0.047298,0.001335,0.440843,-0.775596,-1.798898,9.785854,0.000000,0.000000,0.000000,1
175,17.600000,frame_000175.png,393.570587,-104.993835,0.001734,0.009336,-0.009432,95.972984,-0.056021,0.039669,0.458361,-1.287898,-0.151057,9.796249,0.000000,0.000000,0.000000,1
176,17.700000,frame_000176.png,393.530670,-104.612343,0.001759,0.005535,-0.013640,95.973114,-0.036955,0.026609,0.481012,-1.518460,-0.010730,9.809873,0.000000,0.000000,0.000000,1
177,17.800000,frame_000177.png,393.476013,-104.248169,0.001773,-0.051331,-0.016051,96.728012,-0.077728,0.693205,14.937587,-1.024037,2.090240,9.770961,1.000000,0.000000,0.222222,1
178,17.900000,frame_000178.png,393.391998,-103.884987,0.001704,-0.076080,-0.004242,98.378967,0.201881,0.063829,17.692183,0.929803,3.628550,9.829264,1.000000,0.000000,0.222222,1
179,18.000000,frame_000179.png,393.311646,-103.481873,0.001570,0.002310,0.018530,99.059898,0.246711,-0.563950,0.922742,3.161319,-1.425476,9.882260,0.000000,0.000000,0.000000,1
180,18.100000,frame_000180.png,393.242310,-103.055542,0.001563,0.018216,0.019603,99.079803,-0.083100,0.011446,0.139889,1.700878,-2.046598,9.762666,0.000000,0.000000,0.000000,1
181,18.200000,frame_000181.png,393.174866,-102.634491,0.001633,0.012343,0.007834,99.081406,-0.135338,0.041612,0.370232,-0.535556,-0.169466,9.793417,0.000000,0.000000,0.000000,1
182,18.300000,frame_000182.png,393.109802,-102.227211,0.001698,0.007279,-0.003388,99.081680,-0.101354,0.024873,0.423673,-1.400424,-0.007875,9.810522,0.000000,0.000000,0.000000,1
183,18.400000,frame_000183.png,393.047302,-101.835701,0.001742,0.004191,-0.010867,99.081894,-0.060887,0.014066,0.461583,-1.606796,-0.007470,9.811482,0.000000,0.000000,0.000000,1
184,18.500000,frame_000184.png,393.003967,-101.457535,0.001766,0.058512,-0.014801,98.306244,0.097366,-0.687796,-14.462667,-2.145530,-2.137794,9.847709,1.000000,0.000000,-0.222222,1
185,18.600000,frame_000185.png,392.965881,-101.080185,0.001727,0.008758,-0.008333,97.717628,-0.015999,0.515764,-0.260980,-0.048159,-0.593070,9.738478,0.000000,0.000000,0.000000,1
186,18.700000,frame_000186.png,392.933258,-100.705444,0.001721,0.047969,-0.007267,96.929749,0.092485,-0.684026,-14.427377,-0.462025,-0.468533,9.870998,1.000000,0.000000,-0.222222,1
187,18.800000,frame_000187.png,392.904419,-100.327492,0.001688,0.001154,-0.001708,96.343468,-0.019271,0.477597,-0.257429,0.404140,-0.435044,9.750503,0.000000,0.000000,0.000000,1
188,18.900000,frame_000188.png,392.880646,-99.950958,0.001695,0.043613,-0.002780,95.553474,0.058341,-0.715695,-14.481590,-0.325858,-0.460652,9.871199,1.000000,0.000000,-0.222222,1
189,19.000000,frame_000189.png,392.885651,-99.564697,0.001645,0.072231,0.005751,93.842308,0.179025,-0.064924,-18.116167,0.117614,-3.610758,9.796782,1.000000,0.000000,-0.222222,1
190,19.100000,frame_000190.png,392.906433,-99.135353,0.001517,0.076106,0.027553,91.892464,0.228727,-0.033896,-20.587944,4.032694,-1.919564,9.789760,1.000000,0.000000,-0.222222,1
191,19.200000,frame_000191.png,392.916473,-98.650360,0.001484,-0.007263,0.045148,91.024017,0.073531,0.874881,-1.534287,6.311440,1.588831,9.750669,0.000000,0.000000,0.000000,1
192,19.300000,frame_000192.png,392.909515,-98.143181,0.001809,-0.023193,0.032867,90.983505,-0.238310,-0.069888,-0.282710,2.886458,2.392399,9.869195,0.000000,0.000000,0.000000,1
193,19.400000,frame_000193.png,392.901276,-97.646324,0.001606,-0.015717,0.014903,90.963539,-0.150056,-0.078630,-0.064172,-1.001080,0.204586,9.769854,0.000000,0.000000,0.000000,1
194,19.500000,frame_000194.png,392.913147,-97.161346,0.001605,0.057389,0.001188,90.052162,-0.098239,-0.925517,-17.693392,-1.815818,-2.505741,9.876498,1.000000,0.000000,-0.222222,1
195,19.600000,frame_000195.png,392.934448,-96.679100,0.001624,0.010128,0.000007,89.281982,-0.005709,0.589666,-1.309145,-0.195104,-1.091752,9.736536,0.000000,0.000000,0.000000,1
196,19.700000,frame_000196.png,392.942047,-96.202759,0.001673,-0.010254,-0.004672,89.252182,-0.064423,0.024803,-0.036479,-0.091116,1.940746,9.828962,0.000000,0.000000,0.000000,1
197,19.800000,frame_000197.png,392.948151,-95.741844,0.001727,-0.007965,-0.011202,89.251411,-0.061217,-0.034850,-0.003164,-1.522133,0.199021,9.824685,0.000000,0.000000,0.000000,1
198,19.900000,frame_000198.png,392.954041,-95.298653,0.001765,-0.004822,-0.016147,89.250847,-0.039183,-0.025371,-0.095030,-1.777841,-0.004884,9.809579,0.000000,0.000000,0.000000,1
199,20.000000,frame_000199.png,392.959534,-94.873329,0.001786,-0.002838,-0.018947,89.249527,-0.020592,-0.014662,-0.381809,-1.794930,0.022020,9.808438,0.000000,0.000000,0.000000,1
200,20.100000,frame_000200.png,392.982880,-94.465919,0.001795,0.059499,-0.020176,88.419762,-0.016972,-0.873179,-16.907347,-2.322942,-2.305065,9.848796,1.000000,0.000000,-0.333333,1
201,20.200000,frame_000201.png,393.014923,-94.061844,0.001748,0.011026,-0.011966,87.675873,0.091374,0.613874,-1.481448,-0.265535,-1.045918,9.733436,0.000000,0.000000,0.000000,1
202,20.300000,frame_000202.png,393.050568,-93.662186,0.001736,0.051071,-0.009952,86.826752,-0.041078,-0.834215,-16.859612,-0.492516,-0.278881,9.870637,1.000000,0.000000,-0.333333,1
203,20.400000,frame_000203.png,393.093689,-93.261528,0.001700,0.004151,-0.003784,86.087730,0.077503,0.580976,-1.469834,0.211819,-0.835656,9.749748,0.000000,0.000000,0.000000,1
204,20.500000,frame_000204.png,393.140350,-92.864021,0.001705,0.046875,-0.004549,85.240097,-0.091353,-0.852380,-16.840738,-0.356442,-0.263470,9.871509,1.000000,0.000000,-0.333333,1
205,20.600000,frame_000205.png,393.194489,-92.465233,0.001681,0.001735,-0.000519,84.502319,0.074627,0.565823,-1.467898,0.259514,-0.831749,9.749206,0.000000,0.000000,0.000000,1
206,20.700000,frame_000206.png,393.234222,-92.067848,0.001696,-0.015228,-0.002992,84.479370,-0.049900,-0.001517,-0.479021,0.228937,1.981365,9.828412,0.000000,0.000000,0.000000,1
207,20.800000,frame_000207.png,393.271545,-91.682510,0.001728,-0.010742,-0.008422,84.478752,-0.057306,-0.046355,-0.475693,-1.201102,0.187278,9.824438,0.000000,0.000000,0.000000,1
208,20.900000,frame_000208.png,393.307373,-91.311600,0.001753,-0.006439,-0.012759,84.478661,-0.038333,-0.030990,-0.498095,-1.455535,0.011314,9.809636,0.000000,0.000000,0.000000,1
209,21.000000,frame_000209.png,393.357910,-90.957588,0.001769,0.050960,-0.015505,83.729683,-0.091238,-0.778371,-15.439850,-2.044576,-2.071614,9.844835,1.000000,0.000000,-0.333333,1
210,21.100000,frame_000210.png,393.414948,-90.605759,0.001728,0.006185,-0.008422,83.081139,0.127155,0.534472,-1.349353,-0.094563,-0.805629,9.739753,0.000000,0.000000,0.000000,1
211,21.200000,frame_000211.png,393.442596,-90.253174,0.001720,-0.065338,-0.007110,83.807785,0.087167,0.773378,14.380640,0.736472,3.833031,9.786313,1.000000,0.000000,0.333333,1
212,21.300000,frame_000212.png,393.463043,-89.897072,0.001687,-0.016235,-0.001407,84.453110,-0.017477,-0.594719,0.305676,0.210947,0.957689,9.894529,0.000000,0.000000,0.000000,1
213,21.400000,frame_000213.png,393.479950,-89.541725,0.001692,-0.050110,-0.002288,85.220413,0.043829,0.734648,14.536421,-0.014582,0.275775,9.751042,1.000000,0.000000,0.333333,1
214,21.500000,frame_000214.png,393.491394,-89.182587,0.001669,-0.004089,0.001571,85.871712,-0.015586,-0.542291,0.324585,0.242821,0.659876,9.866274,0.000000,0.000000,0.000000,1
215,21.600000,frame_000215.png,393.516022,-88.824928,0.001682,0.012301,-0.000581,85.888535,-0.046580,0.003765,-0.508461,-0.486963,-1.824198,9.788227,0.000000,0.000000,0.000000,1
216,21.700000,frame_000216.png,393.524872,-88.477089,0.001715,-0.044800,-0.006168,86.622002,0.011235,0.796750,14.109528,-0.564458,1.862655,9.756786,1.000000,0.000000,0.333333,1
217,21.800000,frame_000217.png,393.494049,-88.127983,0.001683,-0.100708,-0.000642,88.746330,0.168279,0.218403,23.862934,1.001465,4.955335,9.803300,1.000000,0.000000,0.333333,1
218,21.900000,frame_000218.png,393.435760,-87.740311,0.001549,-0.107941,0.022130,91.376930,0.242974,0.041828,28.042732,4.203629,3.186034,9.838350,1.000000,0.000000,0.333333,1
219,22.000000,frame_000219.png,393.382660,-87.294434,0.001427,-0.004700,0.042736,92.842567,0.148458,-1.139485,3.423971,4.908455,-1.308854,9.883530,0.000000,0.000000,0.000000,1
220,22.100000,frame_000220.png,393.334412,-86.820976,0.001464,-0.036011,0.036548,93.863838,-0.203104,0.980706,19.020451,2.436634,-1.238000,9.712196,1.000000,0.000000,0.333333,1
221,22.200000,frame_000221.png,393.234650,-86.343895,0.001513,-0.120422,0.028270,96.660683,-0.040323,0.464689,32.252533,2.219854,6.217933,9.758339,0.997229,0.000000,0.333333,1
222,22.300000,frame_000222.png,393.125214,-85.833115,0.001799,-0.018311,0.032566,98.417389,0.027250,-1.050748,6.136246,2.652620,0.223086,9.971606,0.000000,0.000000,0.000000,1
223,22.400000,frame_000223.png,393.040222,-85.319191,0.001894,0.021489,0.015067,98.653442,-0.189872,-0.107606,0.783431,-1.100828,-3.631434,9.730843,0.000000,0.000000,0.000000,1
224,22.500000,frame_000224.png,392.962463,-84.819206,0.001873,0.019086,0.000820,98.680634,-0.093031,0.046805,0.069913,-1.640952,-0.738999,9.770960,0.000000,0.000000,0.000000,1
225,22.600000,frame_000225.png,392.887054,-84.326286,0.001668,0.012917,-0.003326,98.683662,-0.048445,0.054214,0.010765,-0.773468,-0.157295,9.796004,0.000000,0.000000,0.000000,1
226,22.700000,frame_000226.png,392.813507,-83.844948,0.001610,0.007720,-0.008825,98.683678,-0.067345,0.032970,0.002524,-1.172439,-0.009633,9.824262,0.000000,0.000000,0.000000,1
227,22.800000,frame_000227.png,392.742615,-83.380577,0.001674,0.004455,-0.014521,98.683701,-0.053042,0.017638,0.003977,-1.719787,-0.001496,9.822895,0.000000,0.000000,0.000000,1
228,22.900000,frame_000228.png,392.655334,-82.937706,0.001734,-0.063263,-0.018312,99.570297,-0.171226,0.937248,17.793663,-1.231498,2.461617,9.762833,1.000000,0.000000,0.333333,1
229,23.000000,frame_000229.png,392.519287,-82.510017,0.001713,-0.132812,-0.010471,102.183266,0.115619,0.327577,29.981298,0.746156,6.306397,9.794100,1.000000,0.000000,0.333333,1
230,23.100000,frame_000230.png,392.339478,-82.058517,0.001585,-0.141754,0.013647,105.386574,0.239081,0.096493,33.613876,3.778270,4.235950,9.841834,1.000000,0.000000,0.333333,1
231,23.200000,frame_000231.png,392.148315,-81.558182,0.001806,-0.018280,0.031494,107.208321,0.263538,-1.084152,9.487226,3.941192,-0.927884,9.931472,0.000000,0.000000,0.000000,1
232,23.300000,frame_000232.png,391.965332,-81.053047,0.001881,-0.041901,0.015989,108.267334,-0.437173,0.762336,21.772696,-0.311811,-1.729353,9.670360,0.585954,0.000000,0.333333,1
233,23.400000,frame_000233.png,391.774414,-80.558289,0.001886,-0.005096,0.006140,109.384712,0.094499,-0.519851,7.889491,-0.696467,1.279896,9.849210,0.000000,0.000000,0.000000,1
234,23.500000,frame_000234.png,391.597443,-80.067596,0.001900,0.013200,-0.002384,109.552551,-0.076236,-0.046024,4.326667,-1.527431,-1.874149,9.798314,0.000000,0.000000,0.000000,1
235,23.600000,frame_000235.png,391.412598,-79.596481,0.001871,-0.052460,-0.009644,110.364456,-0.458809,1.242588,17.970533,-1.115387,1.699673,9.746298,1.000000,0.000000,0.333333,1
236,23.700000,frame_000236.png,391.212494,-79.130592,0.001856,-0.012512,-0.004242,111.362358,0.209835,-0.594104,2.820317,0.169846,1.975610,9.893605,0.000000,0.000000,0.000000,1
237,23.800000,frame_000237.png,391.010193,-78.672661,0.001641,-0.059601,-0.005737,112.334602,-0.372287,0.968715,19.215801,-0.672365,0.326488,9.723866,1.000000,0.000000,0.333333,1
238,23.900000,frame_000238.png,390.793793,-78.215347,0.001859,-0.012054,-0.001591,113.262856,0.161555,-0.539581,-1.098919,0.450642,1.503564,9.923115,0.000000,0.000000,0.000000,1
239,24.000000,frame_000239.png,390.593872,-77.758698,0.001631,0.009585,-0.004426,113.376213,-0.007463,-0.062186,0.110839,-1.279809,-2.106948,9.741981,0.000000,0.000000,0.000000,1
240,24.100000,frame_000240.png,390.400330,-77.311554,0.001622,0.008425,-0.009460,113.378624,-0.067208,0.008041,0.002148,-1.201757,-0.337839,9.814147,0.000000,0.000000,0.000000,1
241,24.200000,frame_000241.png,390.213806,-76.880173,0.001689,0.005177,-0.014897,113.378700,-0.055110,0.006779,-0.002456,-1.725857,-0.021238,9.815449,0.000000,0.000000,0.000000,1
242,24.300000,frame_000242.png,390.034729,-76.465805,0.001744,0.002994,-0.018619,113.378448,-0.033115,0.004525,-0.047857,-1.866545,-0.009353,9.810156,0.000000,0.000000,0.000000,1
243,24.400000,frame_000243.png,389.845551,-76.076080,0.001777,-0.062408,-0.020477,114.244156,-0.372219,0.837689,17.223139,-1.227739,2.415437,9.761762,1.000000,0.000000,0.333333,1
244,24.500000,frame_000244.png,389.649017,-75.693878,0.001741,-0.013000,-0.012547,115.033821,0.334677,-0.563425,0.965873,-0.453095,1.181322,9.889926,0.000000,0.000000,0.000000,1
245,24.600000,frame_000245.png,389.467926,-75.309982,0.001738,0.009404,-0.010990,115.058327,-0.000750,-0.032737,-0.347846,-1.029242,-2.060241,9.789349,0.000000,0.000000,0.000000,1
246,24.700000,frame_000246.png,389.293823,-74.938011,0.001757,0.007440,-0.013695,115.058632,-0.042592,0.017650,-0.428995,-1.385735,-0.196187,9.791851,0.000000,0.000000,0.000000,1
247,24.800000,frame_000247.png,389.110626,-74.588005,0.001773,-0.055176,-0.016270,115.870491,-0.382040,0.781707,15.918447,-1.012977,2.221930,9.765049,1.000000,0.000000,0.333333,1
248,24.900000,frame_000248.png,388.888733,-74.261192,0.001724,-0.116791,-0.007780,118.236252,0.051501,0.305855,26.898069,0.864047,5.605185,9.800431,1.000000,0.000000,0.333333,1
249,25.000000,frame_000249.png,388.650024,-73.900848,0.001584,-0.016144,0.015989,119.619995,0.719091,-0.928780,2.999205,2.974452,-0.476013,9.924618,0.000000,0.000000,0.000000,1
250,25.100000,frame_000250.png,388.423187,-73.509102,0.001573,0.024722,0.017929,119.686897,-0.046628,-0.067015,0.073134,1.253032,-3.620424,9.763701,0.000000,0.000000,0.000000,1
251,25.200000,frame_000251.png,388.201752,-73.121239,0.001640,0.018517,0.006618,119.687737,-0.150429,0.013873,-0.124673,-0.620645,-0.419916,9.775601,0.000000,0.000000,0.000000,1
252,25.300000,frame_000252.png,388.004089,-72.736786,0.001703,0.073216,-0.004180,118.835152,0.292923,-0.676649,-16.601755,-2.041569,-2.410635,9.849250,1.000000,0.000000,-0.222222,1
253,25.400000,frame_000253.png,387.836243,-72.334290,0.001667,0.098361,0.001851,116.926796,0.147442,0.065958,-20.237576,-0.506297,-4.287933,9.783900,1.000000,0.000000,-0.222222,1
254,25.500000,frame_000254.png,387.670227,-71.887611,0.001541,0.096045,0.023366,114.784012,0.205062,0.105863,-22.458773,3.701534,-2.213809,9.787441,1.000000,0.000000,-0.222222,1
255,25.600000,frame_000255.png,387.476227,-71.399147,0.001774,0.002227,0.036938,113.820007,-0.333949,0.483449,-2.349372,5.745638,1.551382,9.772969,0.000000,0.000000,0.000000,1
256,25.700000,frame_000256.png,387.267578,-70.915390,0.001870,-0.015900,0.019213,113.724174,-0.200367,-0.071719,-0.302975,0.822630,2.305152,9.826273,0.000000,0.000000,0.000000,1
257,25.800000,frame_000257.png,387.062256,-70.445854,0.001914,-0.012695,0.002486,113.714256,-0.136685,-0.112294,-0.025689,-1.376552,0.374938,9.820339,0.000000,0.000000,0.000000,1
258,25.900000,frame_000258.png,386.861084,-69.987389,0.001702,-0.008514,-0.003483,113.713379,-0.005265,-0.043656,0.001274,-1.198512,0.071638,9.792583,0.000000,0.000000,0.000000,1
259,26.000000,frame_000259.png,386.681763,-69.528915,0.001597,0.062328,-0.007418,112.793724,0.326945,-0.853278,-17.891020,-1.486236,-2.529652,9.865559,1.000000,0.000000,-0.222222,1
260,26.100000,frame_000260.png,386.503082,-69.065613,0.001702,-0.028595,0.001305,112.369591,-0.555365,1.762987,10.567540,0.733921,-0.224106,9.727147,1.000000,0.000000,0.222222,1
261,26.200000,frame_000261.png,386.293030,-68.591942,0.001889,-0.021301,0.009876,112.932617,0.084774,-0.349394,1.774572,2.874224,3.381362,9.884928,0.000000,0.000000,0.000000,1
262,26.300000,frame_000262.png,386.076874,-68.127052,0.001928,-0.064240,0.001414,113.787315,-0.338831,0.489006,15.733753,-0.320915,1.024029,9.746991,1.000000,0.000000,0.222222,1
263,26.400000,frame_000263.png,385.853302,-67.673134,0.001912,-0.020020,-0.002076,114.707802,0.167933,-0.495178,3.182873,-0.658838,1.371424,9.868375,0.000000,0.000000,0.000000,1
264,26.500000,frame_000264.png,385.623383,-67.224777,0.001860,-0.067657,-0.001284,115.683945,-0.257737,0.461903,16.791470,-0.208462,0.683118,9.744469,1.000000,0.000000,0.222222,1
265,26.600000,frame_000265.png,385.384277,-66.780762,0.001827,-0.013611,0.000164,116.646156,0.326817,-0.567414,3.119817,0.004008,1.233858,9.883116,0.000000,0.000000,0.000000,1
266,26.700000,frame_000266.png,385.156830,-66.333679,0.001789,0.006214,-0.002903,116.731071,0.020286,-0.061763,0.575006,-0.860607,-1.854792,9.782061,0.000000,0.000000,0.000000,1
267,26.800000,frame_000267.png,384.915527,-65.900246,0.001575,-0.062073,-0.004884,117.663063,-0.442233,0.801883,18.054409,0.023467,2.270038,9.729267,1.000000,0.000000,0.222222,1
268,26.900000,frame_000268.png,384.636871,-65.481956,0.001755,-0.103394,0.003640,119.803886,0.105669,0.189571,22.791670,1.375869,4.917321,9.866455,1.000000,0.000000,0.222222,1
269,27.000000,frame_000269.png,384.349640,-65.042458,0.001870,-0.013580,0.010628,120.868073,0.320796,-0.605019,-0.005022,1.466134,-0.779709,9.894212,0.000000,0.000000,0.000000,1
270,27.100000,frame_000270.png,384.077789,-64.598114,0.001899,0.011562,0.003094,121.011246,-0.047061,-0.095790,-3.231850,-1.002641,-2.339198,9.745560,0.000000,0.000000,0.000000,1
271,27.200000,frame_000271.png,383.815094,-64.163399,0.001922,0.010450,-0.005894,121.029770,-0.087990,-0.015627,-3.700589,-1.383247,-0.433549,9.789790,0.000000,0.000000,0.000000,1
272,27.300000,frame_000272.png,383.557831,-63.736191,0.001675,0.006870,-0.007267,121.077415,-0.018161,0.029417,-0.024684,-0.917053,-0.059274,9.786518,0.000000,0.000000,0.000000,1
273,27.400000,frame_000273.png,383.306976,-63.319939,0.001619,0.004026,-0.013025,121.077538,-0.107213,-0.037979,-0.000094,-1.297192,-0.017091,9.826238,0.000000,1.000000,0.000000,1
274,27.500000,frame_000274.png,383.069672,-62.926235,0.001699,0.002300,-0.020600,121.077538,-0.033568,-0.004687,-0.000208,-2.631642,0.001502,9.822200,0.000000,0.000000,0.000000,1
275,27.600000,frame_000275.png,382.843964,-62.551727,0.001769,0.001300,-0.025299,121.077568,-0.069582,-0.032961,-0.001956,-2.251606,0.002740,9.810472,0.000000,1.000000,0.000000,1
276,27.700000,frame_000276.png,382.638000,-62.210014,0.001862,0.000716,-0.036412,121.076721,-0.110737,-0.060872,-0.148527,-3.819610,0.003860,9.805700,0.000000,1.000000,0.000000,1
277,27.800000,frame_000277.png,382.453033,-61.903099,0.001903,0.000365,-0.040776,121.076309,0.034363,0.025305,-0.522543,-4.087376,-0.004481,9.806763,0.000000,0.000000,0.000000,1
278,27.900000,frame_000278.png,382.279785,-61.615780,0.001886,0.000183,-0.036473,121.075905,0.007902,0.008892,-0.710734,-2.309465,0.004477,9.808846,0.000000,1.000000,0.000000,1
279,28.000000,frame_000279.png,382.124298,-61.357666,0.001912,0.000072,-0.040346,121.075203,-0.058758,-0.031308,-0.854860,-3.403992,-0.007660,9.806328,0.000000,1.000000,0.000000,1
280,28.100000,frame_000280.png,381.988068,-61.131664,0.001920,0.000014,-0.041350,121.077538,0.059590,0.039141,-0.640994,-3.757960,0.007231,9.807506,0.000000,0.000000,0.000000,1
281,28.200000,frame_000281.png,381.859100,-60.917690,0.001857,-0.000031,-0.030586,121.077736,0.088669,0.055627,-0.593171,-1.434571,0.000383,9.810457,0.000000,0.000000,0.000000,1
282,28.300000,frame_000282.png,381.734955,-60.711704,0.001810,-0.000031,-0.022430,121.077744,0.053658,0.033927,-0.588508,-0.933264,-0.003184,9.809313,0.000000,0.000000,0.000000,1
283,28.400000,frame_000283.png,381.615692,-60.513908,0.001782,-0.000061,-0.017704,121.077744,0.030369,0.019596,-0.587905,-0.947977,0.006178,9.809289,0.000000,0.000000,0.000000,1
284,28.500000,frame_000284.png,381.505066,-60.330418,0.001797,-0.000061,-0.020238,121.076431,-0.052325,-0.029788,-1.078967,-1.661974,-0.004553,9.808603,0.000000,1.000000,0.000000,1
285,28.600000,frame_000285.png,381.405701,-60.165634,0.001805,-0.000061,-0.021488,121.076912,0.044648,0.028144,-0.643546,-2.187605,0.002715,9.809347,0.000000,0.000000,0.000000,1
286,28.700000,frame_000286.png,381.309570,-60.006084,0.001771,-0.000061,-0.015839,121.077034,0.040297,0.025406,-0.611432,-0.631584,-0.003355,9.810559,0.000000,0.000000,0.000000,1
287,28.800000,frame_000287.png,381.216705,-59.852043,0.001751,-0.000061,-0.012486,121.077087,0.020273,0.013052,-0.602590,-0.640329,-0.000657,9.809598,0.000000,0.000000,0.000000,1
288,28.900000,frame_000288.png,381.127441,-59.703991,0.001742,-0.000061,-0.010771,121.077087,0.010382,0.007129,-0.601188,-0.697055,0.001600,9.809733,0.000000,0.000000,0.000000,1
289,29.000000,frame_000289.png,381.041779,-59.561897,0.001736,-0.000061,-0.009829,121.077087,0.006231,0.004506,-0.602282,-0.693461,0.002451,9.809754,0.000000,0.000000,0.000000,1
290,29.100000,frame_000290.png,380.959625,-59.425564,0.001732,-0.000061,-0.009187,121.077087,0.004378,0.003345,-0.604250,-0.677073,-0.004442,9.809892,0.000000,0.000000,0.000000,1
291,29.200000,frame_000291.png,380.931488,-59.380230,0.002108,0.000013,-0.073151,120.995811,-0.272073,-0.177436,-0.000484,-10.514224,0.000728,9.789330,0.000000,1.000000,0.000000,1
292,29.300000,frame_000292.png,380.930420,-59.378563,0.002019,0.000198,-0.058016,120.995796,0.331983,0.200475,-0.000066,-5.258771,-0.016929,9.813684,1.000000,0.000000,0.000000,1
293,29.400000,frame_000293.png,380.921600,-59.363880,0.001827,0.000120,-0.025422,120.995415,0.251849,0.152685,-0.020189,1.475462,-0.005340,9.812433,0.000000,0.000000,0.000000,1
294,29.500000,frame_000294.png,380.903900,-59.334431,0.001712,0.000030,-0.005772,120.995415,0.094279,0.057341,-0.000017,1.746475,-0.002792,9.808711,0.000000,0.000000,0.000000,1
295,29.600000,frame_000295.png,380.883423,-59.300339,0.001679,0.000000,-0.000123,120.995415,0.014810,0.009343,0.000001,0.574502,0.004828,9.808468,0.000000,0.000000,0.000000,1
296,29.700000,frame_000296.png,380.862610,-59.265785,0.001676,-0.000031,0.000382,120.995415,-0.007592,-0.004437,0.000005,0.063948,-0.000459,9.809434,0.000000,0.000000,0.000000,1
297,29.800000,frame_000297.png,380.842377,-59.232040,0.001680,-0.000031,-0.000273,120.995415,-0.010761,-0.006389,0.000001,-0.093301,-0.002301,9.809854,0.000000,0.000000,0.000000,1
298,29.900000,frame_000298.png,380.840485,-59.229012,0.001784,-0.000061,-0.017943,120.995262,0.002142,0.001461,-0.000001,-3.549340,0.001423,9.807024,0.000000,0.953809,0.000000,1
